{"timesteps": 312, "episode": 1, "episode_length": 309, "total_reward": -69.26140975439921, "terminated": true, "truncated": false, "mean_yaw_error": 1.745842120565786, "max_yaw_error": 2.9556411396292295, "min_yaw_error": 0.6948853221200574, "std_yaw_error": 0.738020747011081, "time_on_target": 0.0, "time_close": 0.0, "mean_action": 0.05282599574503486, "std_action": 0.9719779396190263, "mean_action_change": 1.0759303519085002, "max_action": 2.871633291244507, "action_reversals": 147, "mean_roll": 1.0550970716413308, "mean_pitch": 0.931953296263743, "max_tilt": 1.407752384832989, "mean_altitude_error": 0.0006273731734406658, "reward_facing": 0.0, "reward_error_reduction": 0.0, "reward_velocity_match": 0.0, "reward_direction_bonus": 0.0, "reward_excess_penalty": 0.0, "reward_smoothness_penalty": 0.0, "reward_tracking_bonus": 0.0, "reward_alive_bonus": 0.0, "target_pattern": "", "target_speed": 0.0}
{"timesteps": 344, "episode": 2, "episode_length": 30, "total_reward": -4.584650756325573, "terminated": true, "truncated": false, "mean_yaw_error": 1.7339668132279138, "max_yaw_error": 2.8375921913583686, "min_yaw_error": 0.10299790358480376, "std_yaw_error": 0.8238692218019572, "time_on_target": 0.0, "time_close": 0.1, "mean_action": -0.049889847387870154, "std_action": 0.9678751749155007, "mean_action_change": 1.1256657795145595, "max_action": 2.243189811706543, "action_reversals": 13, "mean_roll": -0.7979424303649619, "mean_pitch": -1.2247705953814745, "max_tilt": 1.4617712315844207, "mean_altitude_error": 0.0031058324982187486, "reward_facing": 0.0, "reward_error_reduction": 0.0, "reward_velocity_match": 0.0, "reward_direction_bonus": 0.0, "reward_excess_penalty": 0.0, "reward_smoothness_penalty": 0.0, "reward_tracking_bonus": 0.0, "reward_alive_bonus": 0.0, "target_pattern": "", "target_speed": 0.0}
{"timesteps": 16000, "episode": 3, "episode_length": 15654, "total_reward": -174.55710958968507, "terminated": false, "truncated": true, "mean_yaw_error": 1.6355928438190261, "max_yaw_error": 3.141563103312086, "min_yaw_error": 7.064562330946525e-05, "std_yaw_error": 0.9397744817456486, "time_on_target": 0.03788169158042673, "time_close": 0.10776798262424939, "mean_action": -0.002514092534222536, "std_action": 1.0023401480788416, "mean_action_change": 1.133751220469221, "max_action": 3.624603271484375, "action_reversals": 7895, "mean_roll": -0.22655557937543008, "mean_pitch": 0.1545226192735293, "max_tilt": 0.4912915709918733, "mean_altitude_error": 0.0020892709456769897, "reward_facing": 0.0, "reward_error_reduction": 0.0, "reward_velocity_match": 0.0, "reward_direction_bonus": 0.0, "reward_excess_penalty": 0.0, "reward_smoothness_penalty": 0.0, "reward_tracking_bonus": 0.0, "reward_alive_bonus": 0.0, "target_pattern": "", "target_speed": 0.0}
{"timesteps": 16000, "episode": 4, "episode_length": 1, "total_reward": 0.004127142019569874, "terminated": false, "truncated": true, "mean_yaw_error": 0.25538968836036435, "max_yaw_error": 0.25538968836036435, "min_yaw_error": 0.25538968836036435, "std_yaw_error": 0.0, "time_on_target": 0.0, "time_close": 1.0, "mean_action": -1.0146876573562622, "std_action": 0.0, "mean_action_change": 0.0, "max_action": 1.0146876573562622, "action_reversals": 0, "mean_roll": 0.19418088429689886, "mean_pitch": 0.11010625179437937, "max_tilt": 0.22322545220142997, "mean_altitude_error": 0.0012536005989364218, "reward_facing": 0.0, "reward_error_reduction": 0.0, "reward_velocity_match": 0.0, "reward_direction_bonus": 0.0, "reward_excess_penalty": 0.0, "reward_smoothness_penalty": 0.0, "reward_tracking_bonus": 0.0, "reward_alive_bonus": 0.0, "target_pattern": "", "target_speed": 0.0}
{"timesteps": 16000, "episode": 5, "episode_length": 2, "total_reward": -0.009993809275329113, "terminated": false, "truncated": true, "mean_yaw_error": 1.222761495509262, "max_yaw_error": 2.178757550257866, "min_yaw_error": 0.26676544076065806, "std_yaw_error": 0.9559960547486039, "time_on_target": 0.0, "time_close": 0.5, "mean_action": -0.3598433881998062, "std_action": 0.27116434276103973, "mean_action_change": 0.5423286855220795, "max_action": 0.631007730960846, "action_reversals": 0, "mean_roll": -0.0955769146054988, "mean_pitch": 0.07696285901705174, "max_tilt": 0.12271197282085149, "mean_altitude_error": 0.00040580171254628317, "reward_facing": 0.0, "reward_error_reduction": 0.0, "reward_velocity_match": 0.0, "reward_direction_bonus": 0.0, "reward_excess_penalty": 0.0, "reward_smoothness_penalty": 0.0, "reward_tracking_bonus": 0.0, "reward_alive_bonus": 0.0, "target_pattern": "", "target_speed": 0.0}
{"timesteps": 16000, "episode": 6, "episode_length": 2, "total_reward": -0.0005251129623502493, "terminated": false, "truncated": true, "mean_yaw_error": 0.69454832849502, "max_yaw_error": 1.0853946862701254, "min_yaw_error": 0.3037019707199148, "std_yaw_error": 0.3908463577751053, "time_on_target": 0.0, "time_close": 0.5, "mean_action": 0.06681696325540543, "std_action": 0.2911299392580986, "mean_action_change": 0.5822598785161972, "max_action": 0.35794690251350403, "action_reversals": 1, "mean_roll": -0.09071760272109936, "mean_pitch": -0.18126590461144035, "max_tilt": 0.21613552769707556, "mean_altitude_error": 0.0008431557396725298, "reward_facing": 0.0, "reward_error_reduction": 0.0, "reward_velocity_match": 0.0, "reward_direction_bonus": 0.0, "reward_excess_penalty": 0.0, "reward_smoothness_penalty": 0.0, "reward_tracking_bonus": 0.0, "reward_alive_bonus": 0.0, "target_pattern": "", "target_speed": 0.0}
{"timesteps": 16000, "episode": 7, "episode_length": 1, "total_reward": -0.004812754690647125, "terminated": false, "truncated": true, "mean_yaw_error": 1.1002959585167753, "max_yaw_error": 1.1002959585167753, "min_yaw_error": 1.1002959585167753, "std_yaw_error": 0.0, "time_on_target": 0.0, "time_close": 0.0, "mean_action": 0.3629590570926666, "std_action": 0.0, "mean_action_change": 0.0, "max_action": 0.3629590570926666, "action_reversals": 0, "mean_roll": -0.12883659013576335, "mean_pitch": -0.07449951037138806, "max_tilt": 0.14882554889328387, "mean_altitude_error": 0.0001942685094851182, "reward_facing": 0.0, "reward_error_reduction": 0.0, "reward_velocity_match": 0.0, "reward_direction_bonus": 0.0, "reward_excess_penalty": 0.0, "reward_smoothness_penalty": 0.0, "reward_tracking_bonus": 0.0, "reward_alive_bonus": 0.0, "target_pattern": "", "target_speed": 0.0}
{"timesteps": 16000, "episode": 8, "episode_length": 1, "total_reward": -0.019723867997527122, "terminated": false, "truncated": true, "mean_yaw_error": 2.73753541047604, "max_yaw_error": 2.73753541047604, "min_yaw_error": 2.73753541047604, "std_yaw_error": 0.0, "time_on_target": 0.0, "time_close": 0.0, "mean_action": 0.48430198431015015, "std_action": 0.0, "mean_action_change": 0.0, "max_action": 0.48430198431015015, "action_reversals": 0, "mean_roll": -0.2770294573351864, "mean_pitch": -0.012097261970149301, "max_tilt": 0.27729346183890147, "mean_altitude_error": 0.00034782040111092094, "reward_facing": 0.0, "reward_error_reduction": 0.0, "reward_velocity_match": 0.0, "reward_direction_bonus": 0.0, "reward_excess_penalty": 0.0, "reward_smoothness_penalty": 0.0, "reward_tracking_bonus": 0.0, "reward_alive_bonus": 0.0, "target_pattern": "", "target_speed": 0.0}
{"timesteps": 16312, "episode": 9, "episode_length": 309, "total_reward": -1.9615280081789024, "terminated": false, "truncated": true, "mean_yaw_error": 1.2812915581058735, "max_yaw_error": 3.136944753430707, "min_yaw_error": 0.0847334272227072, "std_yaw_error": 1.0270504810623693, "time_on_target": 0.003236245954692557, "time_close": 0.18122977346278318, "mean_action": 0.03165989393567287, "std_action": 1.0228178402948525, "mean_action_change": 1.177798447531781, "max_action": 3.4182305335998535, "action_reversals": 163, "mean_roll": 0.21445519712026154, "mean_pitch": 0.28742725620361437, "max_tilt": 0.9211499276621888, "mean_altitude_error": 0.0005316074175200789, "reward_facing": 0.0, "reward_error_reduction": 0.0, "reward_velocity_match": 0.0, "reward_direction_bonus": 0.0, "reward_excess_penalty": 0.0, "reward_smoothness_penalty": 0.0, "reward_tracking_bonus": 0.0, "reward_alive_bonus": 0.0, "target_pattern": "", "target_speed": 0.0}
{"timesteps": 16344, "episode": 10, "episode_length": 30, "total_reward": -0.26504257615306415, "terminated": false, "truncated": true, "mean_yaw_error": 1.4280807984429875, "max_yaw_error": 3.0126847858389416, "min_yaw_error": 0.02137229256137825, "std_yaw_error": 1.1393750143927488, "time_on_target": 0.06666666666666667, "time_close": 0.13333333333333333, "mean_action": 0.03239047999183337, "std_action": 0.8294623095415529, "mean_action_change": 1.2402631362964367, "max_action": 1.735555648803711, "action_reversals": 23, "mean_roll": -0.06622361481116211, "mean_pitch": 0.06027805398687922, "max_tilt": 1.268007179115669, "mean_altitude_error": 0.0024658864484989255, "reward_facing": 0.0, "reward_error_reduction": 0.0, "reward_velocity_match": 0.0, "reward_direction_bonus": 0.0, "reward_excess_penalty": 0.0, "reward_smoothness_penalty": 0.0, "reward_tracking_bonus": 0.0, "reward_alive_bonus": 0.0, "target_pattern": "", "target_speed": 0.0}
{"timesteps": 16352, "episode": 11, "episode_length": 12, "total_reward": -0.7055280791246332, "terminated": true, "truncated": false, "mean_yaw_error": 1.5525603830161543, "max_yaw_error": 3.0000844182372814, "min_yaw_error": 0.3756588125182052, "std_yaw_error": 1.115022737884461, "time_on_target": 0.0, "time_close": 0.0, "mean_action": 0.015367468198140463, "std_action": 0.8134007544721922, "mean_action_change": 1.3487400277094408, "max_action": 1.3835214376449585, "action_reversals": 9, "mean_roll": 1.1377179505450565, "mean_pitch": 0.964864410820952, "max_tilt": 1.4917658885566818, "mean_altitude_error": 0.0039909492313908905, "reward_facing": 0.0, "reward_error_reduction": 0.0, "reward_velocity_match": 0.0, "reward_direction_bonus": 0.0, "reward_excess_penalty": 0.0, "reward_smoothness_penalty": 0.0, "reward_tracking_bonus": 0.0, "reward_alive_bonus": 0.0, "target_pattern": "", "target_speed": 0.0}
{"timesteps": 16720, "episode": 12, "episode_length": 368, "total_reward": -4.821294039109489, "terminated": true, "truncated": false, "mean_yaw_error": 1.7204710389296607, "max_yaw_error": 2.9937343439015964, "min_yaw_error": 0.24206898137964275, "std_yaw_error": 1.0356556167014273, "time_on_target": 0.0, "time_close": 0.14402173913043478, "mean_action": -0.04031365938261961, "std_action": 1.0285626870000564, "mean_action_change": 1.1191956570894743, "max_action": 3.050291061401367, "action_reversals": 172, "mean_roll": 0.9576407272295068, "mean_pitch": 1.101514141100378, "max_tilt": 1.45959212298942, "mean_altitude_error": 0.0030135193870231484, "reward_facing": 0.0, "reward_error_reduction": 0.0, "reward_velocity_match": 0.0, "reward_direction_bonus": 0.0, "reward_excess_penalty": 0.0, "reward_smoothness_penalty": 0.0, "reward_tracking_bonus": 0.0, "reward_alive_bonus": 0.0, "target_pattern": "", "target_speed": 0.0}
{"timesteps": 32000, "episode": 13, "episode_length": 15274, "total_reward": -116.91394301910562, "terminated": false, "truncated": true, "mean_yaw_error": 1.3976046282039918, "max_yaw_error": 3.141592353665905, "min_yaw_error": 0.00015483418149809895, "std_yaw_error": 0.8795374537378626, "time_on_target": 0.03830037973026058, "time_close": 0.1334293570773864, "mean_action": -0.0093675538357068, "std_action": 1.0040093642231664, "mean_action_change": 1.1318791156996229, "max_action": 4.1476030349731445, "action_reversals": 7666, "mean_roll": -0.06025887064478753, "mean_pitch": -0.18568258486197803, "max_tilt": 0.4201060822603995, "mean_altitude_error": 0.0019207409448986938, "reward_facing": 0.0, "reward_error_reduction": 0.0, "reward_velocity_match": 0.0, "reward_direction_bonus": 0.0, "reward_excess_penalty": 0.0, "reward_smoothness_penalty": 0.0, "reward_tracking_bonus": 0.0, "reward_alive_bonus": 0.0, "target_pattern": "", "target_speed": 0.0}
{"timesteps": 32000, "episode": 14, "episode_length": 1, "total_reward": -0.005490243434906006, "terminated": false, "truncated": true, "mean_yaw_error": 1.3764783796639772, "max_yaw_error": 1.3764783796639772, "min_yaw_error": 1.3764783796639772, "std_yaw_error": 0.0, "time_on_target": 0.0, "time_close": 0.0, "mean_action": 0.12280549108982086, "std_action": 0.0, "mean_action_change": 0.0, "max_action": 0.12280549108982086, "action_reversals": 0, "mean_roll": 0.04412091547479673, "mean_pitch": 0.02541399086823337, "max_tilt": 0.050916854912541554, "mean_altitude_error": 0.0002009750854292669, "reward_facing": 0.0, "reward_error_reduction": 0.0, "reward_velocity_match": 0.0, "reward_direction_bonus": 0.0, "reward_excess_penalty": 0.0, "reward_smoothness_penalty": 0.0, "reward_tracking_bonus": 0.0, "reward_alive_bonus": 0.0, "target_pattern": "", "target_speed": 0.0}
{"timesteps": 32000, "episode": 15, "episode_length": 2, "total_reward": -0.01982684200629592, "terminated": false, "truncated": true, "mean_yaw_error": 1.439817716839454, "max_yaw_error": 1.9625442371372994, "min_yaw_error": 0.9170911965416083, "std_yaw_error": 0.5227265202978455, "time_on_target": 0.0, "time_close": 0.0, "mean_action": -0.22658836841583252, "std_action": 1.2696171998977661, "mean_action_change": 2.5392343997955322, "max_action": 1.4962055683135986, "action_reversals": 1, "mean_roll": 0.1411871354480771, "mean_pitch": -0.2696354344277093, "max_tilt": 0.3043633925344065, "mean_altitude_error": 0.0007201588704726092, "reward_facing": 0.0, "reward_error_reduction": 0.0, "reward_velocity_match": 0.0, "reward_direction_bonus": 0.0, "reward_excess_penalty": 0.0, "reward_smoothness_penalty": 0.0, "reward_tracking_bonus": 0.0, "reward_alive_bonus": 0.0, "target_pattern": "", "target_speed": 0.0}
{"timesteps": 32000, "episode": 16, "episode_length": 2, "total_reward": -0.035368332639336586, "terminated": false, "truncated": true, "mean_yaw_error": 2.1973143317554156, "max_yaw_error": 2.2868082537916337, "min_yaw_error": 2.107820409719198, "std_yaw_error": 0.08949392203621787, "time_on_target": 0.0, "time_close": 0.0, "mean_action": -0.19526931084692478, "std_action": 0.23901826702058315, "mean_action_change": 0.4780365340411663, "max_action": 0.43428757786750793, "action_reversals": 1, "mean_roll": 0.007597143057763385, "mean_pitch": 0.0010748133064360545, "max_tilt": 0.09212954819227034, "mean_altitude_error": 0.00035236092911489214, "reward_facing": 0.0, "reward_error_reduction": 0.0, "reward_velocity_match": 0.0, "reward_direction_bonus": 0.0, "reward_excess_penalty": 0.0, "reward_smoothness_penalty": 0.0, "reward_tracking_bonus": 0.0, "reward_alive_bonus": 0.0, "target_pattern": "", "target_speed": 0.0}
{"timesteps": 32000, "episode": 17, "episode_length": 2, "total_reward": -0.006090970477089286, "terminated": false, "truncated": true, "mean_yaw_error": 0.9165320960897319, "max_yaw_error": 1.362525812637231, "min_yaw_error": 0.47053837954223254, "std_yaw_error": 0.44599371654749925, "time_on_target": 0.0, "time_close": 0.0, "mean_action": -0.41519159730523825, "std_action": 0.440895133651793, "mean_action_change": 0.881790267303586, "max_action": 0.8560867309570312, "action_reversals": 1, "mean_roll": 0.013243010674393233, "mean_pitch": -0.03091432471395298, "max_tilt": 0.061140238174287126, "mean_altitude_error": 0.00031069351636947573, "reward_facing": 0.0, "reward_error_reduction": 0.0, "reward_velocity_match": 0.0, "reward_direction_bonus": 0.0, "reward_excess_penalty": 0.0, "reward_smoothness_penalty": 0.0, "reward_tracking_bonus": 0.0, "reward_alive_bonus": 0.0, "target_pattern": "", "target_speed": 0.0}
{"timesteps": 32312, "episode": 18, "episode_length": 309, "total_reward": -3.1096427452284843, "terminated": false, "truncated": true, "mean_yaw_error": 1.506961004768293, "max_yaw_error": 2.5144476482169007, "min_yaw_error": 0.3568707751152531, "std_yaw_error": 0.6824204509850151, "time_on_target": 0.0, "time_close": 0.0, "mean_action": 0.10331959772891211, "std_action": 0.979022607768568, "mean_action_change": 1.1138234028302423, "max_action": 3.227895498275757, "action_reversals": 150, "mean_roll": -0.04357042667931833, "mean_pitch": 0.21211861510561006, "max_tilt": 0.7515830158400448, "mean_altitude_error": 0.00037330372470818014, "reward_facing": 0.0, "reward_error_reduction": 0.0, "reward_velocity_match": 0.0, "reward_direction_bonus": 0.0, "reward_excess_penalty": 0.0, "reward_smoothness_penalty": 0.0, "reward_tracking_bonus": 0.0, "reward_alive_bonus": 0.0, "target_pattern": "", "target_speed": 0.0}
{"timesteps": 32344, "episode": 19, "episode_length": 30, "total_reward": -0.25287113754893653, "terminated": false, "truncated": true, "mean_yaw_error": 1.3080261164675613, "max_yaw_error": 2.40280962628234, "min_yaw_error": 0.345107096520384, "std_yaw_error": 0.7159370662128808, "time_on_target": 0.0, "time_close": 0.06666666666666667, "mean_action": 0.12604120423396428, "std_action": 1.1689841883657117, "mean_action_change": 1.0296226082176998, "max_action": 3.562403440475464, "action_reversals": 9, "mean_roll": 0.04835774488723417, "mean_pitch": -0.07547487030012345, "max_tilt": 0.9965500422231803, "mean_altitude_error": 0.0018283959245724939, "reward_facing": 0.0, "reward_error_reduction": 0.0, "reward_velocity_match": 0.0, "reward_direction_bonus": 0.0, "reward_excess_penalty": 0.0, "reward_smoothness_penalty": 0.0, "reward_tracking_bonus": 0.0, "reward_alive_bonus": 0.0, "target_pattern": "", "target_speed": 0.0}
{"timesteps": 32384, "episode": 20, "episode_length": 43, "total_reward": -0.942597870802274, "terminated": true, "truncated": false, "mean_yaw_error": 1.2161645258361489, "max_yaw_error": 2.3908045435074685, "min_yaw_error": 0.33089081380292207, "std_yaw_error": 0.666824261790698, "time_on_target": 0.0, "time_close": 0.11627906976744186, "mean_action": 0.10132802780284438, "std_action": 1.1730711515243808, "mean_action_change": 1.320853469627244, "max_action": 2.8150973320007324, "action_reversals": 24, "mean_roll": 1.2061334148426446, "mean_pitch": -0.7487841733734258, "max_tilt": 1.419660365261531, "mean_altitude_error": 0.0036570307105714124, "reward_facing": 0.0, "reward_error_reduction": 0.0, "reward_velocity_match": 0.0, "reward_direction_bonus": 0.0, "reward_excess_penalty": 0.0, "reward_smoothness_penalty": 0.0, "reward_tracking_bonus": 0.0, "reward_alive_bonus": 0.0, "target_pattern": "", "target_speed": 0.0}
{"timesteps": 32632, "episode": 21, "episode_length": 247, "total_reward": -2.509342393686893, "terminated": true, "truncated": false, "mean_yaw_error": 1.3764540662129778, "max_yaw_error": 2.377474701798584, "min_yaw_error": 0.058872847551181835, "std_yaw_error": 0.7249652721454973, "time_on_target": 0.008097165991902834, "time_close": 0.145748987854251, "mean_action": -0.0893401777153073, "std_action": 0.9859627131319036, "mean_action_change": 1.1552010087099502, "max_action": 2.463050365447998, "action_reversals": 123, "mean_roll": -1.3275506486661874, "mean_pitch": 0.7533353969634756, "max_tilt": 1.5264026156594899, "mean_altitude_error": 0.002088690816193588, "reward_facing": 0.0, "reward_error_reduction": 0.0, "reward_velocity_match": 0.0, "reward_direction_bonus": 0.0, "reward_excess_penalty": 0.0, "reward_smoothness_penalty": 0.0, "reward_tracking_bonus": 0.0, "reward_alive_bonus": 0.0, "target_pattern": "", "target_speed": 0.0}
{"timesteps": 32720, "episode": 22, "episode_length": 90, "total_reward": -0.8909018666017801, "terminated": false, "truncated": true, "mean_yaw_error": 1.5371334874012064, "max_yaw_error": 2.2864730546337784, "min_yaw_error": 0.21482253120735592, "std_yaw_error": 0.6763492025712531, "time_on_target": 0.0, "time_close": 0.13333333333333333, "mean_action": 0.08438942266835106, "std_action": 0.9140320949852222, "mean_action_change": 0.9726464549142323, "max_action": 2.2466132640838623, "action_reversals": 40, "mean_roll": -0.030078711327746328, "mean_pitch": 0.06141308290078169, "max_tilt": 0.09475049764110441, "mean_altitude_error": 0.002877931891585316, "reward_facing": 0.0, "reward_error_reduction": 0.0, "reward_velocity_match": 0.0, "reward_direction_bonus": 0.0, "reward_excess_penalty": 0.0, "reward_smoothness_penalty": 0.0, "reward_tracking_bonus": 0.0, "reward_alive_bonus": 0.0, "target_pattern": "", "target_speed": 0.0}
{"timesteps": 32976, "episode": 23, "episode_length": 254, "total_reward": -3.610490390798077, "terminated": true, "truncated": false, "mean_yaw_error": 1.6464148869938553, "max_yaw_error": 2.322462468266293, "min_yaw_error": 0.968489181543929, "std_yaw_error": 0.49505744380891925, "time_on_target": 0.0, "time_close": 0.0, "mean_action": -0.05034294222870211, "std_action": 1.0222503787510662, "mean_action_change": 1.1235348817859243, "max_action": 2.758357286453247, "action_reversals": 117, "mean_roll": -0.2830793375358364, "mean_pitch": 1.3767068500544777, "max_tilt": 1.4055090402863477, "mean_altitude_error": 0.003942528701506549, "reward_facing": 0.0, "reward_error_reduction": 0.0, "reward_velocity_match": 0.0, "reward_direction_bonus": 0.0, "reward_excess_penalty": 0.0, "reward_smoothness_penalty": 0.0, "reward_tracking_bonus": 0.0, "reward_alive_bonus": 0.0, "target_pattern": "", "target_speed": 0.0}
{"timesteps": 33288, "episode": 24, "episode_length": 312, "total_reward": -3.9495845747987914, "terminated": true, "truncated": false, "mean_yaw_error": 1.5305663033626216, "max_yaw_error": 2.4445590681154403, "min_yaw_error": 0.6581930695142515, "std_yaw_error": 0.5479138611161708, "time_on_target": 0.0, "time_close": 0.0, "mean_action": -0.19251005141398844, "std_action": 1.0148601477946106, "mean_action_change": 1.1077344763508947, "max_action": 3.0237607955932617, "action_reversals": 157, "mean_roll": -1.3468601306185706, "mean_pitch": 0.6614928619596468, "max_tilt": 1.5005349105813692, "mean_altitude_error": 0.004728956485075459, "reward_facing": 0.0, "reward_error_reduction": 0.0, "reward_velocity_match": 0.0, "reward_direction_bonus": 0.0, "reward_excess_penalty": 0.0, "reward_smoothness_penalty": 0.0, "reward_tracking_bonus": 0.0, "reward_alive_bonus": 0.0, "target_pattern": "", "target_speed": 0.0}
{"timesteps": 48000, "episode": 25, "episode_length": 14708, "total_reward": -156.3214613331329, "terminated": false, "truncated": true, "mean_yaw_error": 1.6567434824252127, "max_yaw_error": 3.1415295038464013, "min_yaw_error": 0.00027006782679585463, "std_yaw_error": 0.9293425579337714, "time_on_target": 0.02774000543921675, "time_close": 0.10599673646994832, "mean_action": -0.009406537242524365, "std_action": 1.0151112840064223, "mean_action_change": 1.1527304108332865, "max_action": 4.261183738708496, "action_reversals": 7422, "mean_roll": -0.5070993769599887, "mean_pitch": -0.18024636049626555, "max_tilt": 0.7039781415654409, "mean_altitude_error": 0.0028292709876909946, "reward_facing": 0.0, "reward_error_reduction": 0.0, "reward_velocity_match": 0.0, "reward_direction_bonus": 0.0, "reward_excess_penalty": 0.0, "reward_smoothness_penalty": 0.0, "reward_tracking_bonus": 0.0, "reward_alive_bonus": 0.0, "target_pattern": "", "target_speed": 0.0}
{"timesteps": 48000, "episode": 26, "episode_length": 1, "total_reward": 0.0014167302288115025, "terminated": false, "truncated": true, "mean_yaw_error": 0.5566898298532041, "max_yaw_error": 0.5566898298532041, "min_yaw_error": 0.5566898298532041, "std_yaw_error": 0.0, "time_on_target": 0.0, "time_close": 0.0, "mean_action": 0.5508363842964172, "std_action": 0.0, "mean_action_change": 0.0, "max_action": 0.5508363842964172, "action_reversals": 0, "mean_roll": -0.14612759960386404, "mean_pitch": -0.029873862195101294, "max_tilt": 0.1491500017044556, "mean_altitude_error": 0.00043568465498955433, "reward_facing": 0.0, "reward_error_reduction": 0.0, "reward_velocity_match": 0.0, "reward_direction_bonus": 0.0, "reward_excess_penalty": 0.0, "reward_smoothness_penalty": 0.0, "reward_tracking_bonus": 0.0, "reward_alive_bonus": 0.0, "target_pattern": "", "target_speed": 0.0}
{"timesteps": 48000, "episode": 27, "episode_length": 2, "total_reward": -0.019470509607344866, "terminated": false, "truncated": true, "mean_yaw_error": 1.3750995921271199, "max_yaw_error": 1.7619794257541388, "min_yaw_error": 0.9882197585001008, "std_yaw_error": 0.386879833627019, "time_on_target": 0.0, "time_close": 0.0, "mean_action": -0.004746749997138977, "std_action": 0.40264280140399933, "mean_action_change": 0.8052856028079987, "max_action": 0.4073895514011383, "action_reversals": 1, "mean_roll": 0.05842222827357515, "mean_pitch": -0.010987423227153563, "max_tilt": 0.05944644838526787, "mean_altitude_error": 0.0009449062699660726, "reward_facing": 0.0, "reward_error_reduction": 0.0, "reward_velocity_match": 0.0, "reward_direction_bonus": 0.0, "reward_excess_penalty": 0.0, "reward_smoothness_penalty": 0.0, "reward_tracking_bonus": 0.0, "reward_alive_bonus": 0.0, "target_pattern": "", "target_speed": 0.0}
{"timesteps": 48000, "episode": 28, "episode_length": 4, "total_reward": -0.0332453369628638, "terminated": false, "truncated": true, "mean_yaw_error": 1.505187119256434, "max_yaw_error": 2.442379759838071, "min_yaw_error": 0.49507039141695497, "std_yaw_error": 0.689624390413783, "time_on_target": 0.0, "time_close": 0.0, "mean_action": 0.5033865608274937, "std_action": 0.4377168077585099, "mean_action_change": 0.8233789404233297, "max_action": 1.1624833345413208, "action_reversals": 2, "mean_roll": 0.03200305642443029, "mean_pitch": 0.05891835419897967, "max_tilt": 0.30279308409875993, "mean_altitude_error": 0.0004084767982093229, "reward_facing": 0.0, "reward_error_reduction": 0.0, "reward_velocity_match": 0.0, "reward_direction_bonus": 0.0, "reward_excess_penalty": 0.0, "reward_smoothness_penalty": 0.0, "reward_tracking_bonus": 0.0, "reward_alive_bonus": 0.0, "target_pattern": "", "target_speed": 0.0}
{"timesteps": 48312, "episode": 29, "episode_length": 306, "total_reward": -2.478781399151103, "terminated": true, "truncated": false, "mean_yaw_error": 1.166655262103032, "max_yaw_error": 2.713227504931068, "min_yaw_error": 0.08767886173026108, "std_yaw_error": 0.6631633280539755, "time_on_target": 0.0196078431372549, "time_close": 0.12418300653594772, "mean_action": 0.12510958916562445, "std_action": 0.9564875644151154, "mean_action_change": 1.087443547647019, "max_action": 3.011730432510376, "action_reversals": 162, "mean_roll": -1.3148496639378509, "mean_pitch": -0.8387386508100427, "max_tilt": 1.5595871771466097, "mean_altitude_error": 0.0006635449045376387, "reward_facing": 0.0, "reward_error_reduction": 0.0, "reward_velocity_match": 0.0, "reward_direction_bonus": 0.0, "reward_excess_penalty": 0.0, "reward_smoothness_penalty": 0.0, "reward_tracking_bonus": 0.0, "reward_alive_bonus": 0.0, "target_pattern": "", "target_speed": 0.0}
{"timesteps": 48344, "episode": 30, "episode_length": 33, "total_reward": -0.2618197266710922, "terminated": false, "truncated": true, "mean_yaw_error": 1.2970553338075537, "max_yaw_error": 2.9819741928136847, "min_yaw_error": 0.18425457027275893, "std_yaw_error": 0.8097038784484618, "time_on_target": 0.0, "time_close": 0.12121212121212122, "mean_action": 0.17656387343551172, "std_action": 1.046380422009987, "mean_action_change": 1.2855468103662133, "max_action": 2.611377000808716, "action_reversals": 19, "mean_roll": -0.2465207068713592, "mean_pitch": -0.17578702018323883, "max_tilt": 1.1416305504620543, "mean_altitude_error": 0.0016137064540072451, "reward_facing": 0.0, "reward_error_reduction": 0.0, "reward_velocity_match": 0.0, "reward_direction_bonus": 0.0, "reward_excess_penalty": 0.0, "reward_smoothness_penalty": 0.0, "reward_tracking_bonus": 0.0, "reward_alive_bonus": 0.0, "target_pattern": "", "target_speed": 0.0}
{"timesteps": 48360, "episode": 31, "episode_length": 21, "total_reward": -0.7533850817562779, "terminated": true, "truncated": false, "mean_yaw_error": 1.3698030324874704, "max_yaw_error": 2.986244662200697, "min_yaw_error": 0.20533419814300188, "std_yaw_error": 0.8286769814279624, "time_on_target": 0.0, "time_close": 0.14285714285714285, "mean_action": 0.10402578434773854, "std_action": 0.7799646398686557, "mean_action_change": 0.971117752417922, "max_action": 2.269784927368164, "action_reversals": 11, "mean_roll": -1.432356934325597, "mean_pitch": 0.14897591085276207, "max_tilt": 1.440083403600303, "mean_altitude_error": 0.0028963916333028398, "reward_facing": 0.0, "reward_error_reduction": 0.0, "reward_velocity_match": 0.0, "reward_direction_bonus": 0.0, "reward_excess_penalty": 0.0, "reward_smoothness_penalty": 0.0, "reward_tracking_bonus": 0.0, "reward_alive_bonus": 0.0, "target_pattern": "", "target_speed": 0.0}
{"timesteps": 48384, "episode": 32, "episode_length": 22, "total_reward": -0.18510063190478832, "terminated": false, "truncated": true, "mean_yaw_error": 1.379924329144994, "max_yaw_error": 2.992644966281216, "min_yaw_error": 0.21650510618967742, "std_yaw_error": 0.9108729172060014, "time_on_target": 0.0, "time_close": 0.13636363636363635, "mean_action": 0.10909340564500201, "std_action": 1.0975401594763705, "mean_action_change": 1.2018333829584575, "max_action": 2.611053466796875, "action_reversals": 8, "mean_roll": -0.24378792321059167, "mean_pitch": 0.1275382978526034, "max_tilt": 0.2761925039823351, "mean_altitude_error": 0.0008017385023012524, "reward_facing": 0.0, "reward_error_reduction": 0.0, "reward_velocity_match": 0.0, "reward_direction_bonus": 0.0, "reward_excess_penalty": 0.0, "reward_smoothness_penalty": 0.0, "reward_tracking_bonus": 0.0, "reward_alive_bonus": 0.0, "target_pattern": "", "target_speed": 0.0}
{"timesteps": 48712, "episode": 33, "episode_length": 324, "total_reward": -3.428061074643665, "terminated": true, "truncated": false, "mean_yaw_error": 1.4572926115491058, "max_yaw_error": 3.0565265822717436, "min_yaw_error": 0.22379467975206466, "std_yaw_error": 0.887443653566461, "time_on_target": 0.0, "time_close": 0.07716049382716049, "mean_action": -0.018716266022328242, "std_action": 0.9973153161933941, "mean_action_change": 1.060354369089884, "max_action": 3.396717071533203, "action_reversals": 148, "mean_roll": -1.4298129659313759, "mean_pitch": -0.09412496775120724, "max_tilt": 1.4329077524738443, "mean_altitude_error": 0.002063184775234882, "reward_facing": 0.0, "reward_error_reduction": 0.0, "reward_velocity_match": 0.0, "reward_direction_bonus": 0.0, "reward_excess_penalty": 0.0, "reward_smoothness_penalty": 0.0, "reward_tracking_bonus": 0.0, "reward_alive_bonus": 0.0, "target_pattern": "", "target_speed": 0.0}
{"timesteps": 48720, "episode": 34, "episode_length": 13, "total_reward": -0.11183611178421415, "terminated": false, "truncated": true, "mean_yaw_error": 1.3281125958453452, "max_yaw_error": 2.316956424200858, "min_yaw_error": 0.4505620574932656, "std_yaw_error": 0.6809449804871044, "time_on_target": 0.0, "time_close": 0.0, "mean_action": 0.12011872547177169, "std_action": 0.9054452274676085, "mean_action_change": 1.0214198442796867, "max_action": 1.5054740905761719, "action_reversals": 6, "mean_roll": 0.3766529173467275, "mean_pitch": -0.21490116496056477, "max_tilt": 1.0567658807180536, "mean_altitude_error": 0.00306953014580714, "reward_facing": 0.0, "reward_error_reduction": 0.0, "reward_velocity_match": 0.0, "reward_direction_bonus": 0.0, "reward_excess_penalty": 0.0, "reward_smoothness_penalty": 0.0, "reward_tracking_bonus": 0.0, "reward_alive_bonus": 0.0, "target_pattern": "", "target_speed": 0.0}
{"timesteps": 48752, "episode": 35, "episode_length": 31, "total_reward": -0.7671173922717571, "terminated": true, "truncated": false, "mean_yaw_error": 1.1519866862280794, "max_yaw_error": 2.246675628966092, "min_yaw_error": 0.26427012989768284, "std_yaw_error": 0.6773925859438045, "time_on_target": 0.0, "time_close": 0.0967741935483871, "mean_action": 0.024587593251659025, "std_action": 1.1198998097148853, "mean_action_change": 1.4137731529772282, "max_action": 3.079271078109741, "action_reversals": 17, "mean_roll": -1.4429809163911322, "mean_pitch": 0.002830565741405223, "max_tilt": 1.4429836926214408, "mean_altitude_error": 0.003956757641819858, "reward_facing": 0.0, "reward_error_reduction": 0.0, "reward_velocity_match": 0.0, "reward_direction_bonus": 0.0, "reward_excess_penalty": 0.0, "reward_smoothness_penalty": 0.0, "reward_tracking_bonus": 0.0, "reward_alive_bonus": 0.0, "target_pattern": "", "target_speed": 0.0}
{"timesteps": 49048, "episode": 36, "episode_length": 297, "total_reward": -1.8218743506149622, "terminated": true, "truncated": false, "mean_yaw_error": 1.0089490496589586, "max_yaw_error": 2.123196858576987, "min_yaw_error": 0.02336425495172473, "std_yaw_error": 0.5428089309657376, "time_on_target": 0.013468013468013467, "time_close": 0.12794612794612795, "mean_action": -0.0005132868409357488, "std_action": 0.9534909490654123, "mean_action_change": 1.0920376736746245, "max_action": 3.2220726013183594, "action_reversals": 149, "mean_roll": -0.9900343143751252, "mean_pitch": 0.9947252942266849, "max_tilt": 1.4034408981551696, "mean_altitude_error": 0.002724184681299759, "reward_facing": 0.0, "reward_error_reduction": 0.0, "reward_velocity_match": 0.0, "reward_direction_bonus": 0.0, "reward_excess_penalty": 0.0, "reward_smoothness_penalty": 0.0, "reward_tracking_bonus": 0.0, "reward_alive_bonus": 0.0, "target_pattern": "", "target_speed": 0.0}
{"timesteps": 49288, "episode": 37, "episode_length": 238, "total_reward": -1.4412198968493612, "terminated": false, "truncated": true, "mean_yaw_error": 1.1725305684063716, "max_yaw_error": 1.988461150994515, "min_yaw_error": 0.6035515732248661, "std_yaw_error": 0.40679642108956404, "time_on_target": 0.0, "time_close": 0.0, "mean_action": 0.04631922472299648, "std_action": 1.0547915334983857, "mean_action_change": 1.1886466832729332, "max_action": 2.7782626152038574, "action_reversals": 121, "mean_roll": 0.03381054642307983, "mean_pitch": -0.1503861726514837, "max_tilt": 0.2651403859809906, "mean_altitude_error": 0.0036968878702506093, "reward_facing": 0.0, "reward_error_reduction": 0.0, "reward_velocity_match": 0.0, "reward_direction_bonus": 0.0, "reward_excess_penalty": 0.0, "reward_smoothness_penalty": 0.0, "reward_tracking_bonus": 0.0, "reward_alive_bonus": 0.0, "target_pattern": "", "target_speed": 0.0}
{"timesteps": 49408, "episode": 38, "episode_length": 122, "total_reward": -1.6028698443551548, "terminated": true, "truncated": false, "mean_yaw_error": 1.4109260701417414, "max_yaw_error": 2.799264007169115, "min_yaw_error": 0.6419078239487019, "std_yaw_error": 0.6290946484380019, "time_on_target": 0.0, "time_close": 0.0, "mean_action": -0.08748953331445085, "std_action": 0.9930011006725895, "mean_action_change": 1.232292207681443, "max_action": 2.757066249847412, "action_reversals": 71, "mean_roll": -0.6439107746303866, "mean_pitch": -1.2871902247727693, "max_tilt": 1.439263617422353, "mean_altitude_error": 0.004641810683778233, "reward_facing": 0.0, "reward_error_reduction": 0.0, "reward_velocity_match": 0.0, "reward_direction_bonus": 0.0, "reward_excess_penalty": 0.0, "reward_smoothness_penalty": 0.0, "reward_tracking_bonus": 0.0, "reward_alive_bonus": 0.0, "target_pattern": "", "target_speed": 0.0}
{"timesteps": 64000, "episode": 39, "episode_length": 14586, "total_reward": -121.37774669613057, "terminated": false, "truncated": true, "mean_yaw_error": 1.467077491231813, "max_yaw_error": 3.141214335734777, "min_yaw_error": 4.551661220864728e-05, "std_yaw_error": 0.9392296239620757, "time_on_target": 0.03297682709447415, "time_close": 0.1474016179898533, "mean_action": -0.010439741499490228, "std_action": 1.0010958672075758, "mean_action_change": 1.1242062038798517, "max_action": 4.176762580871582, "action_reversals": 7215, "mean_roll": 0.14589785477736267, "mean_pitch": -0.11824201446837647, "max_tilt": 0.4867057401649742, "mean_altitude_error": 0.002027819776135467, "reward_facing": 0.0, "reward_error_reduction": 0.0, "reward_velocity_match": 0.0, "reward_direction_bonus": 0.0, "reward_excess_penalty": 0.0, "reward_smoothness_penalty": 0.0, "reward_tracking_bonus": 0.0, "reward_alive_bonus": 0.0, "target_pattern": "", "target_speed": 0.0}
{"timesteps": 64000, "episode": 40, "episode_length": 3, "total_reward": -0.04312347108498216, "terminated": false, "truncated": true, "mean_yaw_error": 1.8686872133298162, "max_yaw_error": 2.4532667521951117, "min_yaw_error": 1.0346529020508302, "std_yaw_error": 0.6054128489800824, "time_on_target": 0.0, "time_close": 0.0, "mean_action": 0.8152834971745809, "std_action": 0.11157816285139607, "mean_action_change": 0.17835694551467896, "max_action": 0.9341881275177002, "action_reversals": 0, "mean_roll": -0.04282022981723751, "mean_pitch": -0.04903997723311012, "max_tilt": 0.24005595254615686, "mean_altitude_error": 0.0008230544366580883, "reward_facing": 0.0, "reward_error_reduction": 0.0, "reward_velocity_match": 0.0, "reward_direction_bonus": 0.0, "reward_excess_penalty": 0.0, "reward_smoothness_penalty": 0.0, "reward_tracking_bonus": 0.0, "reward_alive_bonus": 0.0, "target_pattern": "", "target_speed": 0.0}
{"timesteps": 64344, "episode": 41, "episode_length": 343, "total_reward": -5.247773895471255, "terminated": false, "truncated": true, "mean_yaw_error": 2.051290673773462, "max_yaw_error": 3.1400180995718827, "min_yaw_error": 0.41872758068804045, "std_yaw_error": 0.874803258236618, "time_on_target": 0.0, "time_close": 0.0, "mean_action": -0.007784589522303715, "std_action": 0.9534075554387959, "mean_action_change": 1.0689814782412776, "max_action": 2.6982271671295166, "action_reversals": 160, "mean_roll": 0.2702402406722105, "mean_pitch": 0.02147442892499504, "max_tilt": 0.5094797699671042, "mean_altitude_error": 0.0009957598959381218, "reward_facing": 0.0, "reward_error_reduction": 0.0, "reward_velocity_match": 0.0, "reward_direction_bonus": 0.0, "reward_excess_penalty": 0.0, "reward_smoothness_penalty": 0.0, "reward_tracking_bonus": 0.0, "reward_alive_bonus": 0.0, "target_pattern": "", "target_speed": 0.0}
{"timesteps": 64360, "episode": 42, "episode_length": 21, "total_reward": -0.31662889872677624, "terminated": false, "truncated": true, "mean_yaw_error": 2.0149432479863583, "max_yaw_error": 3.0177113204114923, "min_yaw_error": 0.4120955257381404, "std_yaw_error": 0.8524929026289668, "time_on_target": 0.0, "time_close": 0.0, "mean_action": 0.040280221828392575, "std_action": 1.1933701843331566, "mean_action_change": 1.7539526160806418, "max_action": 2.4443140029907227, "action_reversals": 14, "mean_roll": -0.04777140589194136, "mean_pitch": -0.12975578676188712, "max_tilt": 0.3271068188655841, "mean_altitude_error": 0.0010876144892804137, "reward_facing": 0.0, "reward_error_reduction": 0.0, "reward_velocity_match": 0.0, "reward_direction_bonus": 0.0, "reward_excess_penalty": 0.0, "reward_smoothness_penalty": 0.0, "reward_tracking_bonus": 0.0, "reward_alive_bonus": 0.0, "target_pattern": "", "target_speed": 0.0}
{"timesteps": 64712, "episode": 43, "episode_length": 346, "total_reward": -3.849792698340025, "terminated": false, "truncated": true, "mean_yaw_error": 1.6951874163755851, "max_yaw_error": 3.006812150750788, "min_yaw_error": 0.2635985624017502, "std_yaw_error": 0.8513405141478542, "time_on_target": 0.0, "time_close": 0.07514450867052024, "mean_action": 0.09246296101825775, "std_action": 0.9880334424089439, "mean_action_change": 1.1134801533883032, "max_action": 2.966421604156494, "action_reversals": 170, "mean_roll": -0.0593273355854604, "mean_pitch": 0.04416885839123734, "max_tilt": 0.502423689367069, "mean_altitude_error": 0.0016929457436200357, "reward_facing": 0.0, "reward_error_reduction": 0.0, "reward_velocity_match": 0.0, "reward_direction_bonus": 0.0, "reward_excess_penalty": 0.0, "reward_smoothness_penalty": 0.0, "reward_tracking_bonus": 0.0, "reward_alive_bonus": 0.0, "target_pattern": "", "target_speed": 0.0}
{"timesteps": 64752, "episode": 44, "episode_length": 44, "total_reward": -0.3882786058020429, "terminated": false, "truncated": true, "mean_yaw_error": 1.497108142550565, "max_yaw_error": 2.728408600930157, "min_yaw_error": 0.2461674449266599, "std_yaw_error": 0.8652870602250314, "time_on_target": 0.0, "time_close": 0.11363636363636363, "mean_action": 0.27717053111303935, "std_action": 0.9664850636875435, "mean_action_change": 0.9826248974301094, "max_action": 2.070566177368164, "action_reversals": 19, "mean_roll": -0.12739440233590904, "mean_pitch": 0.17056380825126105, "max_tilt": 0.2635598782165378, "mean_altitude_error": 0.0026830260439872963, "reward_facing": 0.0, "reward_error_reduction": 0.0, "reward_velocity_match": 0.0, "reward_direction_bonus": 0.0, "reward_excess_penalty": 0.0, "reward_smoothness_penalty": 0.0, "reward_tracking_bonus": 0.0, "reward_alive_bonus": 0.0, "target_pattern": "", "target_speed": 0.0}
{"timesteps": 65072, "episode": 45, "episode_length": 320, "total_reward": -3.785644542677801, "terminated": true, "truncated": false, "mean_yaw_error": 1.6453373000881855, "max_yaw_error": 2.815733664504233, "min_yaw_error": 0.10834639092437427, "std_yaw_error": 0.9635333019214897, "time_on_target": 0.0, "time_close": 0.125, "mean_action": 0.03157354775466956, "std_action": 0.9928768616360848, "mean_action_change": 1.124356548228888, "max_action": 2.763486623764038, "action_reversals": 152, "mean_roll": -1.3730867252836272, "mean_pitch": -0.7164642449960885, "max_tilt": 1.5487698891403883, "mean_altitude_error": 0.0031945503884656195, "reward_facing": 0.0, "reward_error_reduction": 0.0, "reward_velocity_match": 0.0, "reward_direction_bonus": 0.0, "reward_excess_penalty": 0.0, "reward_smoothness_penalty": 0.0, "reward_tracking_bonus": 0.0, "reward_alive_bonus": 0.0, "target_pattern": "", "target_speed": 0.0}
{"timesteps": 65288, "episode": 46, "episode_length": 215, "total_reward": -1.3953406392247416, "terminated": false, "truncated": true, "mean_yaw_error": 1.3581679433639164, "max_yaw_error": 2.8507885798821957, "min_yaw_error": 0.01708276606766235, "std_yaw_error": 0.9161634997216732, "time_on_target": 0.11627906976744186, "time_close": 0.17209302325581396, "mean_action": -0.08163464672343676, "std_action": 0.9851585135522392, "mean_action_change": 1.052049266957791, "max_action": 2.7941484451293945, "action_reversals": 96, "mean_roll": -0.06117574879632969, "mean_pitch": -0.09210696729433654, "max_tilt": 0.3503697343320845, "mean_altitude_error": 0.003645999079984175, "reward_facing": 0.0, "reward_error_reduction": 0.0, "reward_velocity_match": 0.0, "reward_direction_bonus": 0.0, "reward_excess_penalty": 0.0, "reward_smoothness_penalty": 0.0, "reward_tracking_bonus": 0.0, "reward_alive_bonus": 0.0, "target_pattern": "", "target_speed": 0.0}
{"timesteps": 65408, "episode": 47, "episode_length": 122, "total_reward": -0.754229548969306, "terminated": false, "truncated": true, "mean_yaw_error": 1.4209199277211286, "max_yaw_error": 2.8859255388226472, "min_yaw_error": 3.611119402676742e-06, "std_yaw_error": 0.9858522735182313, "time_on_target": 0.12295081967213115, "time_close": 0.2459016393442623, "mean_action": 0.0010417953866427062, "std_action": 0.9605748876451089, "mean_action_change": 1.0075203515281361, "max_action": 2.6181352138519287, "action_reversals": 56, "mean_roll": 0.23929480196757552, "mean_pitch": -0.11297282581581425, "max_tilt": 0.2646221109837791, "mean_altitude_error": 0.0038363238747129626, "reward_facing": 0.0, "reward_error_reduction": 0.0, "reward_velocity_match": 0.0, "reward_direction_bonus": 0.0, "reward_excess_penalty": 0.0, "reward_smoothness_penalty": 0.0, "reward_tracking_bonus": 0.0, "reward_alive_bonus": 0.0, "target_pattern": "", "target_speed": 0.0}
{"timesteps": 80000, "episode": 48, "episode_length": 14586, "total_reward": -137.13217452564118, "terminated": false, "truncated": true, "mean_yaw_error": 1.4897783665083295, "max_yaw_error": 3.140675009594155, "min_yaw_error": 0.000290382597336532, "std_yaw_error": 0.7845545917064071, "time_on_target": 0.021047579871109282, "time_close": 0.08473879062114356, "mean_action": 0.05357612675050051, "std_action": 1.0154651174000098, "mean_action_change": 1.1446170299404956, "max_action": 3.984457492828369, "action_reversals": 7204, "mean_roll": 0.037114997960878596, "mean_pitch": -0.2676125527172079, "max_tilt": 0.6721926730354854, "mean_altitude_error": 0.0022346401830777977, "reward_facing": 0.0, "reward_error_reduction": 0.0, "reward_velocity_match": 0.0, "reward_direction_bonus": 0.0, "reward_excess_penalty": 0.0, "reward_smoothness_penalty": 0.0, "reward_tracking_bonus": 0.0, "reward_alive_bonus": 0.0, "target_pattern": "", "target_speed": 0.0}
{"timesteps": 80000, "episode": 49, "episode_length": 3, "total_reward": -0.0172768235206604, "terminated": false, "truncated": true, "mean_yaw_error": 1.376744230796957, "max_yaw_error": 3.031031652177099, "min_yaw_error": 0.12188938963747466, "std_yaw_error": 1.2207748811116763, "time_on_target": 0.0, "time_close": 0.3333333333333333, "mean_action": 1.345755696296692, "std_action": 0.44679524347828126, "mean_action_change": 0.5244349241256714, "max_action": 1.9603885412216187, "action_reversals": 0, "mean_roll": 0.011284096756076036, "mean_pitch": 0.015954200182516868, "max_tilt": 0.3187442032353896, "mean_altitude_error": 0.0001681531828439109, "reward_facing": 0.0, "reward_error_reduction": 0.0, "reward_velocity_match": 0.0, "reward_direction_bonus": 0.0, "reward_excess_penalty": 0.0, "reward_smoothness_penalty": 0.0, "reward_tracking_bonus": 0.0, "reward_alive_bonus": 0.0, "target_pattern": "", "target_speed": 0.0}
{"timesteps": 80344, "episode": 50, "episode_length": 343, "total_reward": -1.88953935724021, "terminated": false, "truncated": true, "mean_yaw_error": 1.2331575301076696, "max_yaw_error": 3.140114965572562, "min_yaw_error": 0.0029190647493806798, "std_yaw_error": 0.998238997156786, "time_on_target": 0.11661807580174927, "time_close": 0.27113702623906705, "mean_action": 0.08868602726271826, "std_action": 0.9996812739196528, "mean_action_change": 1.1380582599524867, "max_action": 3.105775833129883, "action_reversals": 174, "mean_roll": 0.38146523406417293, "mean_pitch": 0.26324915723431047, "max_tilt": 0.9337614245481085, "mean_altitude_error": 0.0006433373800259648, "reward_facing": 0.0, "reward_error_reduction": 0.0, "reward_velocity_match": 0.0, "reward_direction_bonus": 0.0, "reward_excess_penalty": 0.0, "reward_smoothness_penalty": 0.0, "reward_tracking_bonus": 0.0, "reward_alive_bonus": 0.0, "target_pattern": "", "target_speed": 0.0}
{"timesteps": 80360, "episode": 51, "episode_length": 21, "total_reward": -0.1824110704474151, "terminated": false, "truncated": true, "mean_yaw_error": 1.3516567310037135, "max_yaw_error": 2.7015847804679334, "min_yaw_error": 0.08678468882315224, "std_yaw_error": 0.9149537177123256, "time_on_target": 0.09523809523809523, "time_close": 0.23809523809523808, "mean_action": 0.38574794502485366, "std_action": 0.9217068376532934, "mean_action_change": 1.0838286936283112, "max_action": 1.8602577447891235, "action_reversals": 10, "mean_roll": -0.15315610888422085, "mean_pitch": 0.12680429089883283, "max_tilt": 1.039958533219008, "mean_altitude_error": 0.002335806905597791, "reward_facing": 0.0, "reward_error_reduction": 0.0, "reward_velocity_match": 0.0, "reward_direction_bonus": 0.0, "reward_excess_penalty": 0.0, "reward_smoothness_penalty": 0.0, "reward_tracking_bonus": 0.0, "reward_alive_bonus": 0.0, "target_pattern": "", "target_speed": 0.0}
{"timesteps": 80408, "episode": 52, "episode_length": 41, "total_reward": -1.0053341197781265, "terminated": true, "truncated": false, "mean_yaw_error": 1.4141615261310656, "max_yaw_error": 2.5592100783758154, "min_yaw_error": 0.09351676683364504, "std_yaw_error": 0.8890799715786746, "time_on_target": 0.12195121951219512, "time_close": 0.24390243902439024, "mean_action": 0.0014752264066440304, "std_action": 1.0911913907717192, "mean_action_change": 1.3402083218097687, "max_action": 2.2624406814575195, "action_reversals": 22, "mean_roll": 1.2590323057427013, "mean_pitch": -0.6298426510399291, "max_tilt": 1.4077869554633573, "mean_altitude_error": 0.005069886845277243, "reward_facing": 0.0, "reward_error_reduction": 0.0, "reward_velocity_match": 0.0, "reward_direction_bonus": 0.0, "reward_excess_penalty": 0.0, "reward_smoothness_penalty": 0.0, "reward_tracking_bonus": 0.0, "reward_alive_bonus": 0.0, "target_pattern": "", "target_speed": 0.0}
{"timesteps": 80416, "episode": 53, "episode_length": 11, "total_reward": -0.6657053367525805, "terminated": true, "truncated": false, "mean_yaw_error": 1.225653592458159, "max_yaw_error": 2.3190677677146474, "min_yaw_error": 0.09925862040339324, "std_yaw_error": 0.8601756474883351, "time_on_target": 0.09090909090909091, "time_close": 0.2727272727272727, "mean_action": -0.23804677616466174, "std_action": 0.8113641249831635, "mean_action_change": 0.9251068949699401, "max_action": 1.5359268188476562, "action_reversals": 4, "mean_roll": 1.146849431313928, "mean_pitch": 0.8503921849999468, "max_tilt": 1.4277361403333824, "mean_altitude_error": 0.004941471804854027, "reward_facing": 0.0, "reward_error_reduction": 0.0, "reward_velocity_match": 0.0, "reward_direction_bonus": 0.0, "reward_excess_penalty": 0.0, "reward_smoothness_penalty": 0.0, "reward_tracking_bonus": 0.0, "reward_alive_bonus": 0.0, "target_pattern": "", "target_speed": 0.0}
{"timesteps": 80712, "episode": 54, "episode_length": 294, "total_reward": -2.121714024521225, "terminated": false, "truncated": true, "mean_yaw_error": 1.3911372936534832, "max_yaw_error": 2.893112610264901, "min_yaw_error": 0.07900405034871112, "std_yaw_error": 1.008966164581444, "time_on_target": 0.03741496598639456, "time_close": 0.25170068027210885, "mean_action": 0.14377643074206756, "std_action": 1.0334617677220255, "mean_action_change": 1.2130433358124906, "max_action": 4.1700239181518555, "action_reversals": 155, "mean_roll": -0.07336675543487836, "mean_pitch": 0.02003973875343246, "max_tilt": 0.8335182160241827, "mean_altitude_error": 0.000610779347605457, "reward_facing": 0.0, "reward_error_reduction": 0.0, "reward_velocity_match": 0.0, "reward_direction_bonus": 0.0, "reward_excess_penalty": 0.0, "reward_smoothness_penalty": 0.0, "reward_tracking_bonus": 0.0, "reward_alive_bonus": 0.0, "target_pattern": "", "target_speed": 0.0}
{"timesteps": 80824, "episode": 55, "episode_length": 118, "total_reward": -1.3540452279703459, "terminated": true, "truncated": false, "mean_yaw_error": 1.4068571168379902, "max_yaw_error": 2.8647770190102597, "min_yaw_error": 0.00046629096247086224, "std_yaw_error": 1.0875687279536663, "time_on_target": 0.2457627118644068, "time_close": 0.2796610169491525, "mean_action": 0.19818621163524813, "std_action": 0.9346908801255621, "mean_action_change": 1.0884328531658547, "max_action": 2.457216262817383, "action_reversals": 59, "mean_roll": -1.3869181674142528, "mean_pitch": 0.2132170242019168, "max_tilt": 1.4032118523278052, "mean_altitude_error": 0.005281227358317531, "reward_facing": 0.0, "reward_error_reduction": 0.0, "reward_velocity_match": 0.0, "reward_direction_bonus": 0.0, "reward_excess_penalty": 0.0, "reward_smoothness_penalty": 0.0, "reward_tracking_bonus": 0.0, "reward_alive_bonus": 0.0, "target_pattern": "", "target_speed": 0.0}
{"timesteps": 81072, "episode": 56, "episode_length": 246, "total_reward": -0.5477580344550006, "terminated": false, "truncated": true, "mean_yaw_error": 1.159492906786958, "max_yaw_error": 3.128298767640536, "min_yaw_error": 0.00014719864542291948, "std_yaw_error": 1.1300369478901648, "time_on_target": 0.27235772357723576, "time_close": 0.3780487804878049, "mean_action": -0.05054988292977214, "std_action": 1.0076129907366023, "mean_action_change": 1.077314637114807, "max_action": 2.6179070472717285, "action_reversals": 111, "mean_roll": 0.0031623509745235924, "mean_pitch": -0.019931745311595278, "max_tilt": 0.5473265437572161, "mean_altitude_error": 0.00272018207925422, "reward_facing": 0.0, "reward_error_reduction": 0.0, "reward_velocity_match": 0.0, "reward_direction_bonus": 0.0, "reward_excess_penalty": 0.0, "reward_smoothness_penalty": 0.0, "reward_tracking_bonus": 0.0, "reward_alive_bonus": 0.0, "target_pattern": "", "target_speed": 0.0}
{"timesteps": 81288, "episode": 57, "episode_length": 215, "total_reward": -1.7423954175319523, "terminated": false, "truncated": true, "mean_yaw_error": 1.5538954390940354, "max_yaw_error": 3.14029490929112, "min_yaw_error": 0.0073804787438918095, "std_yaw_error": 1.1812281380779839, "time_on_target": 0.06511627906976744, "time_close": 0.25116279069767444, "mean_action": -0.0027342841982148413, "std_action": 1.0008101871982629, "mean_action_change": 1.1691615499695327, "max_action": 3.2015421390533447, "action_reversals": 105, "mean_roll": 0.13985177995124098, "mean_pitch": 0.04082902984429287, "max_tilt": 0.3888369658060122, "mean_altitude_error": 0.004372946972965505, "reward_facing": 0.0, "reward_error_reduction": 0.0, "reward_velocity_match": 0.0, "reward_direction_bonus": 0.0, "reward_excess_penalty": 0.0, "reward_smoothness_penalty": 0.0, "reward_tracking_bonus": 0.0, "reward_alive_bonus": 0.0, "target_pattern": "", "target_speed": 0.0}
{"timesteps": 81384, "episode": 58, "episode_length": 97, "total_reward": -1.6540450492175296, "terminated": true, "truncated": false, "mean_yaw_error": 1.7487735461871021, "max_yaw_error": 3.081962941456181, "min_yaw_error": 0.15614590913525397, "std_yaw_error": 1.0754654538027557, "time_on_target": 0.0, "time_close": 0.2268041237113402, "mean_action": -0.007095876466674903, "std_action": 1.0208055232892888, "mean_action_change": 1.1954474446053307, "max_action": 2.612931728363037, "action_reversals": 52, "mean_roll": 1.3462954187492393, "mean_pitch": -0.7738755082004491, "max_tilt": 1.5528665933484733, "mean_altitude_error": 0.004697995967374591, "reward_facing": 0.0, "reward_error_reduction": 0.0, "reward_velocity_match": 0.0, "reward_direction_bonus": 0.0, "reward_excess_penalty": 0.0, "reward_smoothness_penalty": 0.0, "reward_tracking_bonus": 0.0, "reward_alive_bonus": 0.0, "target_pattern": "", "target_speed": 0.0}
{"timesteps": 81408, "episode": 59, "episode_length": 25, "total_reward": -0.23142952256603166, "terminated": false, "truncated": true, "mean_yaw_error": 1.561157998614883, "max_yaw_error": 3.0445319584671617, "min_yaw_error": 0.19409789189041418, "std_yaw_error": 1.041414244281078, "time_on_target": 0.0, "time_close": 0.12, "mean_action": 0.28615464828908443, "std_action": 1.0435977200541715, "mean_action_change": 1.3197583576353888, "max_action": 2.0077357292175293, "action_reversals": 14, "mean_roll": 0.00021889242874604354, "mean_pitch": -0.011228179444192687, "max_tilt": 0.19644677611375364, "mean_altitude_error": 0.004120543037633793, "reward_facing": 0.0, "reward_error_reduction": 0.0, "reward_velocity_match": 0.0, "reward_direction_bonus": 0.0, "reward_excess_penalty": 0.0, "reward_smoothness_penalty": 0.0, "reward_tracking_bonus": 0.0, "reward_alive_bonus": 0.0, "target_pattern": "", "target_speed": 0.0}
{"timesteps": 81600, "episode": 60, "episode_length": 190, "total_reward": -1.9575449536787346, "terminated": true, "truncated": false, "mean_yaw_error": 1.3481205546487145, "max_yaw_error": 3.0360162367337162, "min_yaw_error": 0.20153944131791127, "std_yaw_error": 1.0127950536856944, "time_on_target": 0.0, "time_close": 0.12631578947368421, "mean_action": 0.032654178122940816, "std_action": 1.0135077012466502, "mean_action_change": 1.1140084466527378, "max_action": 2.8766722679138184, "action_reversals": 87, "mean_roll": 1.3440546339644095, "mean_pitch": 0.7141927653161778, "max_tilt": 1.5220230501247909, "mean_altitude_error": 0.004617305814342506, "reward_facing": 0.0, "reward_error_reduction": 0.0, "reward_velocity_match": 0.0, "reward_direction_bonus": 0.0, "reward_excess_penalty": 0.0, "reward_smoothness_penalty": 0.0, "reward_tracking_bonus": 0.0, "reward_alive_bonus": 0.0, "target_pattern": "", "target_speed": 0.0}
{"timesteps": 81744, "episode": 61, "episode_length": 146, "total_reward": -1.7881490904856037, "terminated": true, "truncated": false, "mean_yaw_error": 1.3886646797815196, "max_yaw_error": 2.965738094604022, "min_yaw_error": 0.2682920801073063, "std_yaw_error": 0.9459901333802339, "time_on_target": 0.0, "time_close": 0.1232876712328767, "mean_action": -0.03406064840008135, "std_action": 1.0017704336509514, "mean_action_change": 1.072407113889168, "max_action": 2.9367218017578125, "action_reversals": 78, "mean_roll": -1.0442705448007195, "mean_pitch": 0.9672663568270511, "max_tilt": 1.4234132132967812, "mean_altitude_error": 0.004780614458047285, "reward_facing": 0.0, "reward_error_reduction": 0.0, "reward_velocity_match": 0.0, "reward_direction_bonus": 0.0, "reward_excess_penalty": 0.0, "reward_smoothness_penalty": 0.0, "reward_tracking_bonus": 0.0, "reward_alive_bonus": 0.0, "target_pattern": "", "target_speed": 0.0}
{"timesteps": 96344, "episode": 62, "episode_length": 14596, "total_reward": -125.82319232286352, "terminated": false, "truncated": true, "mean_yaw_error": 1.4642173171305792, "max_yaw_error": 3.141154284102936, "min_yaw_error": 2.4009213642209477e-05, "std_yaw_error": 0.8813413572849673, "time_on_target": 0.0348040559057276, "time_close": 0.11249657440394628, "mean_action": 0.02850807966905878, "std_action": 1.0155608078736482, "mean_action_change": 1.146170004016237, "max_action": 4.429227828979492, "action_reversals": 7301, "mean_roll": 0.06623353665275498, "mean_pitch": 0.19657917334735237, "max_tilt": 0.3183869207432192, "mean_altitude_error": 0.0018310158366253472, "reward_facing": 0.0, "reward_error_reduction": 0.0, "reward_velocity_match": 0.0, "reward_direction_bonus": 0.0, "reward_excess_penalty": 0.0, "reward_smoothness_penalty": 0.0, "reward_tracking_bonus": 0.0, "reward_alive_bonus": 0.0, "target_pattern": "", "target_speed": 0.0}
{"timesteps": 96408, "episode": 63, "episode_length": 62, "total_reward": -0.5988964434945956, "terminated": false, "truncated": true, "mean_yaw_error": 1.5371589806164452, "max_yaw_error": 3.139480359669126, "min_yaw_error": 0.6618562641927446, "std_yaw_error": 0.8309335582430791, "time_on_target": 0.0, "time_close": 0.0, "mean_action": -0.16397357128200032, "std_action": 0.9958201450896398, "mean_action_change": 1.035128112760235, "max_action": 2.2850475311279297, "action_reversals": 23, "mean_roll": 0.04531511366400996, "mean_pitch": -0.01707291732145871, "max_tilt": 0.28614057555863404, "mean_altitude_error": 0.0005513418222535386, "reward_facing": 0.0, "reward_error_reduction": 0.0, "reward_velocity_match": 0.0, "reward_direction_bonus": 0.0, "reward_excess_penalty": 0.0, "reward_smoothness_penalty": 0.0, "reward_tracking_bonus": 0.0, "reward_alive_bonus": 0.0, "target_pattern": "", "target_speed": 0.0}
{"timesteps": 96416, "episode": 64, "episode_length": 11, "total_reward": -0.14067125273868442, "terminated": false, "truncated": true, "mean_yaw_error": 1.7692769776541537, "max_yaw_error": 3.1415419503767397, "min_yaw_error": 0.6905428893582313, "std_yaw_error": 0.9190568122483365, "time_on_target": 0.0, "time_close": 0.0, "mean_action": 0.35547228292985394, "std_action": 0.9671377951066651, "mean_action_change": 1.0959773898124694, "max_action": 1.8121402263641357, "action_reversals": 4, "mean_roll": -0.00550637258720891, "mean_pitch": 0.02079234599743841, "max_tilt": 0.28267686555131233, "mean_altitude_error": 0.0004211515453688848, "reward_facing": 0.0, "reward_error_reduction": 0.0, "reward_velocity_match": 0.0, "reward_direction_bonus": 0.0, "reward_excess_penalty": 0.0, "reward_smoothness_penalty": 0.0, "reward_tracking_bonus": 0.0, "reward_alive_bonus": 0.0, "target_pattern": "", "target_speed": 0.0}
