{"timesteps": 15392, "episode": 1, "episode_length": 15390, "total_reward": -14107.682954389482, "terminated": true, "truncated": false, "mean_yaw_error": 1.6179024038915832, "max_yaw_error": 3.1414561338575893, "min_yaw_error": 3.3111103017013406e-05, "std_yaw_error": 0.8823167426407826, "time_on_target": 0.012670565302144249, "time_close": 0.09051332033788174, "mean_action": 0.00013624683593493924, "std_action": 1.0007152176882796, "mean_action_change": 1.1313638708051215, "max_action": 3.614597797393799, "action_reversals": 7742, "mean_roll": -1.3361180014546452, "mean_pitch": -0.4610849090282805, "max_tilt": 1.41343928314759, "mean_altitude_error": 0.02158002812072821, "reward_facing": 0.0, "reward_error_reduction": 0.0, "reward_velocity_match": 0.0, "reward_direction_bonus": 0.0, "reward_excess_penalty": 0.0, "reward_smoothness_penalty": 0.0, "reward_tracking_bonus": 0.0, "reward_alive_bonus": 0.0, "target_pattern": "", "target_speed": 0.0}
{"timesteps": 16000, "episode": 2, "episode_length": 603, "total_reward": -493.168214253732, "terminated": false, "truncated": true, "mean_yaw_error": 1.4299793818265503, "max_yaw_error": 2.656216755266867, "min_yaw_error": 0.23809588848737642, "std_yaw_error": 0.7648588523587723, "time_on_target": 0.0, "time_close": 0.08623548922056384, "mean_action": -0.007015375410412032, "std_action": 1.0264452788626508, "mean_action_change": 1.1636410347306698, "max_action": 2.8858606815338135, "action_reversals": 321, "mean_roll": 0.04292678022381112, "mean_pitch": -0.02926343469435119, "max_tilt": 0.055375794849720904, "mean_altitude_error": 0.009891817306164485, "reward_facing": 0.0, "reward_error_reduction": 0.0, "reward_velocity_match": 0.0, "reward_direction_bonus": 0.0, "reward_excess_penalty": 0.0, "reward_smoothness_penalty": 0.0, "reward_tracking_bonus": 0.0, "reward_alive_bonus": 0.0, "target_pattern": "", "target_speed": 0.0}
{"timesteps": 16000, "episode": 3, "episode_length": 1, "total_reward": -1.5044806003570557, "terminated": false, "truncated": true, "mean_yaw_error": 1.7141252634226154, "max_yaw_error": 1.7141252634226154, "min_yaw_error": 1.7141252634226154, "std_yaw_error": 0.0, "time_on_target": 0.0, "time_close": 0.0, "mean_action": -1.0256067514419556, "std_action": 0.0, "mean_action_change": 0.0, "max_action": 1.0256067514419556, "action_reversals": 0, "mean_roll": 0.023699985317914913, "mean_pitch": 0.018553190758313697, "max_tilt": 0.030098342003900467, "mean_altitude_error": 0.00043258273951152226, "reward_facing": 0.0, "reward_error_reduction": 0.0, "reward_velocity_match": 0.0, "reward_direction_bonus": 0.0, "reward_excess_penalty": 0.0, "reward_smoothness_penalty": 0.0, "reward_tracking_bonus": 0.0, "reward_alive_bonus": 0.0, "target_pattern": "", "target_speed": 0.0}
{"timesteps": 16000, "episode": 4, "episode_length": 1, "total_reward": -1.8072937726974487, "terminated": false, "truncated": true, "mean_yaw_error": 2.6579010628532216, "max_yaw_error": 2.6579010628532216, "min_yaw_error": 2.6579010628532216, "std_yaw_error": 0.0, "time_on_target": 0.0, "time_close": 0.0, "mean_action": -0.0894804373383522, "std_action": 0.0, "mean_action_change": 0.0, "max_action": 0.0894804373383522, "action_reversals": 0, "mean_roll": 0.002219308165632158, "mean_pitch": -0.012283432199686828, "max_tilt": 0.012482308894525274, "mean_altitude_error": 0.00016730954977228762, "reward_facing": 0.0, "reward_error_reduction": 0.0, "reward_velocity_match": 0.0, "reward_direction_bonus": 0.0, "reward_excess_penalty": 0.0, "reward_smoothness_penalty": 0.0, "reward_tracking_bonus": 0.0, "reward_alive_bonus": 0.0, "target_pattern": "", "target_speed": 0.0}
{"timesteps": 16000, "episode": 5, "episode_length": 1, "total_reward": -1.539605736732483, "terminated": false, "truncated": true, "mean_yaw_error": 2.0488756466962137, "max_yaw_error": 2.0488756466962137, "min_yaw_error": 2.0488756466962137, "std_yaw_error": 0.0, "time_on_target": 0.0, "time_close": 0.0, "mean_action": -0.6269842982292175, "std_action": 0.0, "mean_action_change": 0.0, "max_action": 0.6269842982292175, "action_reversals": 0, "mean_roll": -0.008232413551539726, "mean_pitch": 0.014499883376422235, "max_tilt": 0.016673909284070754, "mean_altitude_error": 0.0007210609974976911, "reward_facing": 0.0, "reward_error_reduction": 0.0, "reward_velocity_match": 0.0, "reward_direction_bonus": 0.0, "reward_excess_penalty": 0.0, "reward_smoothness_penalty": 0.0, "reward_tracking_bonus": 0.0, "reward_alive_bonus": 0.0, "target_pattern": "", "target_speed": 0.0}
{"timesteps": 16000, "episode": 6, "episode_length": 1, "total_reward": -0.36977994441986084, "terminated": false, "truncated": true, "mean_yaw_error": 1.0112345121119406, "max_yaw_error": 1.0112345121119406, "min_yaw_error": 1.0112345121119406, "std_yaw_error": 0.0, "time_on_target": 0.0, "time_close": 0.0, "mean_action": 0.3573349714279175, "std_action": 0.0, "mean_action_change": 0.0, "max_action": 0.3573349714279175, "action_reversals": 0, "mean_roll": -0.0023418651124366505, "mean_pitch": -0.03526425238921505, "max_tilt": 0.03534192734946847, "mean_altitude_error": 0.0011357149144382017, "reward_facing": 0.0, "reward_error_reduction": 0.0, "reward_velocity_match": 0.0, "reward_direction_bonus": 0.0, "reward_excess_penalty": 0.0, "reward_smoothness_penalty": 0.0, "reward_tracking_bonus": 0.0, "reward_alive_bonus": 0.0, "target_pattern": "", "target_speed": 0.0}
{"timesteps": 16000, "episode": 7, "episode_length": 2, "total_reward": -1.956838220357895, "terminated": false, "truncated": true, "mean_yaw_error": 1.7035331642465517, "max_yaw_error": 2.3059894624169957, "min_yaw_error": 1.1010768660761074, "std_yaw_error": 0.6024562981704441, "time_on_target": 0.0, "time_close": 0.0, "mean_action": 0.06709997355937958, "std_action": 0.2964719086885452, "mean_action_change": 0.5929438173770905, "max_action": 0.3635718822479248, "action_reversals": 1, "mean_roll": -0.0034535982471429207, "mean_pitch": 0.0015049260194662964, "max_tilt": 0.018553711852529353, "mean_altitude_error": 0.004111011435431411, "reward_facing": 0.0, "reward_error_reduction": 0.0, "reward_velocity_match": 0.0, "reward_direction_bonus": 0.0, "reward_excess_penalty": 0.0, "reward_smoothness_penalty": 0.0, "reward_tracking_bonus": 0.0, "reward_alive_bonus": 0.0, "target_pattern": "", "target_speed": 0.0}
{"timesteps": 16000, "episode": 8, "episode_length": 1, "total_reward": 0.6755610704421997, "terminated": false, "truncated": true, "mean_yaw_error": 0.23618422318816948, "max_yaw_error": 0.23618422318816948, "min_yaw_error": 0.23618422318816948, "std_yaw_error": 0.0, "time_on_target": 0.0, "time_close": 1.0, "mean_action": 0.493558794260025, "std_action": 0.0, "mean_action_change": 0.0, "max_action": 0.493558794260025, "action_reversals": 0, "mean_roll": 0.02677603304385736, "mean_pitch": 0.008696148193492535, "max_tilt": 0.028152778530172198, "mean_altitude_error": 0.001813936446365183, "reward_facing": 0.0, "reward_error_reduction": 0.0, "reward_velocity_match": 0.0, "reward_direction_bonus": 0.0, "reward_excess_penalty": 0.0, "reward_smoothness_penalty": 0.0, "reward_tracking_bonus": 0.0, "reward_alive_bonus": 0.0, "target_pattern": "", "target_speed": 0.0}
{"timesteps": 26072, "episode": 9, "episode_length": 10066, "total_reward": -13288.142928979923, "terminated": true, "truncated": false, "mean_yaw_error": 2.033063924935658, "max_yaw_error": 3.1412787460904337, "min_yaw_error": 0.35551321487918286, "std_yaw_error": 0.8509234431829226, "time_on_target": 0.0, "time_close": 0.0, "mean_action": -0.02969899347584255, "std_action": 0.9800958635718785, "mean_action_change": 1.1103828828819318, "max_action": 4.127312183380127, "action_reversals": 5107, "mean_roll": -0.9821653459199253, "mean_pitch": -1.0333110304560853, "max_tilt": 1.4256158151438356, "mean_altitude_error": 0.10049868488790745, "reward_facing": 0.0, "reward_error_reduction": 0.0, "reward_velocity_match": 0.0, "reward_direction_bonus": 0.0, "reward_excess_penalty": 0.0, "reward_smoothness_penalty": 0.0, "reward_tracking_bonus": 0.0, "reward_alive_bonus": 0.0, "target_pattern": "", "target_speed": 0.0}
{"timesteps": 31392, "episode": 10, "episode_length": 5324, "total_reward": -6952.846492147553, "terminated": false, "truncated": true, "mean_yaw_error": 2.0137119209534116, "max_yaw_error": 3.141357907255228, "min_yaw_error": 0.37209360298028055, "std_yaw_error": 0.8461787281235152, "time_on_target": 0.0, "time_close": 0.0, "mean_action": -0.03909128146191148, "std_action": 1.0075474843826298, "mean_action_change": 1.1315859280237601, "max_action": 4.034914970397949, "action_reversals": 2644, "mean_roll": -0.003947850834753773, "mean_pitch": 0.028015714647931428, "max_tilt": 0.8116286532970339, "mean_altitude_error": 0.05891366137608904, "reward_facing": 0.0, "reward_error_reduction": 0.0, "reward_velocity_match": 0.0, "reward_direction_bonus": 0.0, "reward_excess_penalty": 0.0, "reward_smoothness_penalty": 0.0, "reward_tracking_bonus": 0.0, "reward_alive_bonus": 0.0, "target_pattern": "", "target_speed": 0.0}
{"timesteps": 32000, "episode": 11, "episode_length": 603, "total_reward": -667.1541543807834, "terminated": false, "truncated": true, "mean_yaw_error": 1.731089501638392, "max_yaw_error": 3.0920406026960015, "min_yaw_error": 0.18602278179129894, "std_yaw_error": 0.9195558625209372, "time_on_target": 0.0, "time_close": 0.10945273631840796, "mean_action": -0.017970813700858238, "std_action": 0.9999785069572543, "mean_action_change": 1.0943140472870234, "max_action": 2.7735211849212646, "action_reversals": 286, "mean_roll": 0.18046199154086567, "mean_pitch": -0.0785013177949688, "max_tilt": 0.929918116051844, "mean_altitude_error": 0.043641798294915116, "reward_facing": 0.0, "reward_error_reduction": 0.0, "reward_velocity_match": 0.0, "reward_direction_bonus": 0.0, "reward_excess_penalty": 0.0, "reward_smoothness_penalty": 0.0, "reward_tracking_bonus": 0.0, "reward_alive_bonus": 0.0, "target_pattern": "", "target_speed": 0.0}
{"timesteps": 32000, "episode": 12, "episode_length": 2, "total_reward": -0.7135010957717896, "terminated": false, "truncated": true, "mean_yaw_error": 1.0847078925255575, "max_yaw_error": 1.986092977329144, "min_yaw_error": 0.18332280772197115, "std_yaw_error": 0.9013850848035864, "time_on_target": 0.0, "time_close": 0.5, "mean_action": -0.7068173512816429, "std_action": 0.7939528599381447, "mean_action_change": 1.5879057198762894, "max_action": 1.5007702112197876, "action_reversals": 1, "mean_roll": -0.15822714978991803, "mean_pitch": -0.16027106292976862, "max_tilt": 0.22521688334420892, "mean_altitude_error": 0.006102232387835138, "reward_facing": 0.0, "reward_error_reduction": 0.0, "reward_velocity_match": 0.0, "reward_direction_bonus": 0.0, "reward_excess_penalty": 0.0, "reward_smoothness_penalty": 0.0, "reward_tracking_bonus": 0.0, "reward_alive_bonus": 0.0, "target_pattern": "", "target_speed": 0.0}
{"timesteps": 32000, "episode": 13, "episode_length": 1, "total_reward": -2.1698052883148193, "terminated": false, "truncated": true, "mean_yaw_error": 3.017254067821753, "max_yaw_error": 3.017254067821753, "min_yaw_error": 3.017254067821753, "std_yaw_error": 0.0, "time_on_target": 0.0, "time_close": 0.0, "mean_action": 1.0060709714889526, "std_action": 0.0, "mean_action_change": 0.0, "max_action": 1.0060709714889526, "action_reversals": 0, "mean_roll": 0.7447253945164382, "mean_pitch": -0.17943000364359016, "max_tilt": 0.7660359256883473, "mean_altitude_error": 0.20029513534549037, "reward_facing": 0.0, "reward_error_reduction": 0.0, "reward_velocity_match": 0.0, "reward_direction_bonus": 0.0, "reward_excess_penalty": 0.0, "reward_smoothness_penalty": 0.0, "reward_tracking_bonus": 0.0, "reward_alive_bonus": 0.0, "target_pattern": "", "target_speed": 0.0}
{"timesteps": 32000, "episode": 14, "episode_length": 1, "total_reward": -1.6391299962997437, "terminated": false, "truncated": true, "mean_yaw_error": 2.1040318613642954, "max_yaw_error": 2.1040318613642954, "min_yaw_error": 2.1040318613642954, "std_yaw_error": 0.0, "time_on_target": 0.0, "time_close": 0.0, "mean_action": -0.5160204768180847, "std_action": 0.0, "mean_action_change": 0.0, "max_action": 0.5160204768180847, "action_reversals": 0, "mean_roll": -0.6133490182999217, "mean_pitch": 0.4672182294647366, "max_tilt": 0.7710317063478266, "mean_altitude_error": 0.33226310724385866, "reward_facing": 0.0, "reward_error_reduction": 0.0, "reward_velocity_match": 0.0, "reward_direction_bonus": 0.0, "reward_excess_penalty": 0.0, "reward_smoothness_penalty": 0.0, "reward_tracking_bonus": 0.0, "reward_alive_bonus": 0.0, "target_pattern": "", "target_speed": 0.0}
{"timesteps": 32000, "episode": 15, "episode_length": 2, "total_reward": -3.234546422958374, "terminated": false, "truncated": true, "mean_yaw_error": 2.3430850734280506, "max_yaw_error": 2.9997421124077466, "min_yaw_error": 1.6864280344483544, "std_yaw_error": 0.6566570389796961, "time_on_target": 0.0, "time_close": 0.0, "mean_action": -0.042948463931679726, "std_action": 0.029948486015200615, "mean_action_change": 0.05989697203040123, "max_action": 0.07289694994688034, "action_reversals": 0, "mean_roll": 0.013539922309258786, "mean_pitch": -0.012103174528413837, "max_tilt": 0.018160846065258338, "mean_altitude_error": 0.04040332596768914, "reward_facing": 0.0, "reward_error_reduction": 0.0, "reward_velocity_match": 0.0, "reward_direction_bonus": 0.0, "reward_excess_penalty": 0.0, "reward_smoothness_penalty": 0.0, "reward_tracking_bonus": 0.0, "reward_alive_bonus": 0.0, "target_pattern": "", "target_speed": 0.0}
{"timesteps": 32000, "episode": 16, "episode_length": 1, "total_reward": 0.10556512326002121, "terminated": false, "truncated": true, "mean_yaw_error": 0.4568739192453322, "max_yaw_error": 0.4568739192453322, "min_yaw_error": 0.4568739192453322, "std_yaw_error": 0.0, "time_on_target": 0.0, "time_close": 0.0, "mean_action": -0.7693662047386169, "std_action": 0.0, "mean_action_change": 0.0, "max_action": 0.7693662047386169, "action_reversals": 0, "mean_roll": 0.05284391207275228, "mean_pitch": -0.05218239985721951, "max_tilt": 0.07426629045543824, "mean_altitude_error": 0.011467393780292934, "reward_facing": 0.0, "reward_error_reduction": 0.0, "reward_velocity_match": 0.0, "reward_direction_bonus": 0.0, "reward_excess_penalty": 0.0, "reward_smoothness_penalty": 0.0, "reward_tracking_bonus": 0.0, "reward_alive_bonus": 0.0, "target_pattern": "", "target_speed": 0.0}
{"timesteps": 41920, "episode": 17, "episode_length": 9918, "total_reward": -11402.078498129064, "terminated": true, "truncated": false, "mean_yaw_error": 1.8408501991538617, "max_yaw_error": 3.1413680853193484, "min_yaw_error": 7.560370648582011e-05, "std_yaw_error": 0.8701363484360594, "time_on_target": 0.015124016938898971, "time_close": 0.04900181488203267, "mean_action": -0.041823694577005285, "std_action": 0.9874757858417231, "mean_action_change": 1.1159613652030276, "max_action": 3.730891227722168, "action_reversals": 4948, "mean_roll": -0.7809561600108763, "mean_pitch": -1.2106979281453394, "max_tilt": 1.4407227342810798, "mean_altitude_error": 0.022105827781141816, "reward_facing": 0.0, "reward_error_reduction": 0.0, "reward_velocity_match": 0.0, "reward_direction_bonus": 0.0, "reward_excess_penalty": 0.0, "reward_smoothness_penalty": 0.0, "reward_tracking_bonus": 0.0, "reward_alive_bonus": 0.0, "target_pattern": "", "target_speed": 0.0}
{"timesteps": 42072, "episode": 18, "episode_length": 148, "total_reward": -128.98956275731325, "terminated": false, "truncated": true, "mean_yaw_error": 1.6488443848136953, "max_yaw_error": 2.8781619533592284, "min_yaw_error": 0.04697503666560721, "std_yaw_error": 0.8623996706572095, "time_on_target": 0.12162162162162163, "time_close": 0.12162162162162163, "mean_action": -0.06962544601914045, "std_action": 1.0477445658451296, "mean_action_change": 1.055868642518715, "max_action": 3.6945910453796387, "action_reversals": 68, "mean_roll": 0.003405355821420178, "mean_pitch": 0.034652378934906136, "max_tilt": 0.14700874368062303, "mean_altitude_error": 0.0023162019751148204, "reward_facing": 0.0, "reward_error_reduction": 0.0, "reward_velocity_match": 0.0, "reward_direction_bonus": 0.0, "reward_excess_penalty": 0.0, "reward_smoothness_penalty": 0.0, "reward_tracking_bonus": 0.0, "reward_alive_bonus": 0.0, "target_pattern": "", "target_speed": 0.0}
{"timesteps": 48000, "episode": 19, "episode_length": 5927, "total_reward": -2691.6071073188214, "terminated": false, "truncated": true, "mean_yaw_error": 1.1744035223240477, "max_yaw_error": 3.1414930738026587, "min_yaw_error": 2.5202493359358738e-05, "std_yaw_error": 0.7597234094493065, "time_on_target": 0.047241437489455036, "time_close": 0.12502108992745065, "mean_action": -0.007960673488481075, "std_action": 0.9978666268986311, "mean_action_change": 1.1458283210029607, "max_action": 4.038827896118164, "action_reversals": 3024, "mean_roll": 0.040308187712412305, "mean_pitch": -0.03311745038865603, "max_tilt": 0.9664769886380712, "mean_altitude_error": 0.023074956003199983, "reward_facing": 0.0, "reward_error_reduction": 0.0, "reward_velocity_match": 0.0, "reward_direction_bonus": 0.0, "reward_excess_penalty": 0.0, "reward_smoothness_penalty": 0.0, "reward_tracking_bonus": 0.0, "reward_alive_bonus": 0.0, "target_pattern": "", "target_speed": 0.0}
{"timesteps": 48000, "episode": 20, "episode_length": 2, "total_reward": 0.08951391279697418, "terminated": false, "truncated": true, "mean_yaw_error": 0.6909887976134315, "max_yaw_error": 0.7328723775158087, "min_yaw_error": 0.6491052177110542, "std_yaw_error": 0.04188357990237723, "time_on_target": 0.0, "time_close": 0.0, "mean_action": 0.4068879634141922, "std_action": 0.09683279693126678, "mean_action_change": 0.19366559386253357, "max_action": 0.503720760345459, "action_reversals": 0, "mean_roll": 0.073699905868306, "mean_pitch": 0.11544828523299454, "max_tilt": 0.26226090228854215, "mean_altitude_error": 0.009317461855941345, "reward_facing": 0.0, "reward_error_reduction": 0.0, "reward_velocity_match": 0.0, "reward_direction_bonus": 0.0, "reward_excess_penalty": 0.0, "reward_smoothness_penalty": 0.0, "reward_tracking_bonus": 0.0, "reward_alive_bonus": 0.0, "target_pattern": "", "target_speed": 0.0}
{"timesteps": 48000, "episode": 21, "episode_length": 1, "total_reward": -0.6368776559829712, "terminated": false, "truncated": true, "mean_yaw_error": 1.1143584056378428, "max_yaw_error": 1.1143584056378428, "min_yaw_error": 1.1143584056378428, "std_yaw_error": 0.0, "time_on_target": 0.0, "time_close": 0.0, "mean_action": -0.4614204168319702, "std_action": 0.0, "mean_action_change": 0.0, "max_action": 0.4614204168319702, "action_reversals": 0, "mean_roll": -0.6691794718914525, "mean_pitch": 0.7129988667787858, "max_tilt": 0.9778387135048172, "mean_altitude_error": 0.7652515302645422, "reward_facing": 0.0, "reward_error_reduction": 0.0, "reward_velocity_match": 0.0, "reward_direction_bonus": 0.0, "reward_excess_penalty": 0.0, "reward_smoothness_penalty": 0.0, "reward_tracking_bonus": 0.0, "reward_alive_bonus": 0.0, "target_pattern": "", "target_speed": 0.0}
{"timesteps": 48000, "episode": 22, "episode_length": 1, "total_reward": -0.21531462669372559, "terminated": false, "truncated": true, "mean_yaw_error": 0.697027306915598, "max_yaw_error": 0.697027306915598, "min_yaw_error": 0.697027306915598, "std_yaw_error": 0.0, "time_on_target": 0.0, "time_close": 0.0, "mean_action": 0.43486344814300537, "std_action": 0.0, "mean_action_change": 0.0, "max_action": 0.43486344814300537, "action_reversals": 0, "mean_roll": -0.0765040624572781, "mean_pitch": -0.3896685374918451, "max_tilt": 0.39710759333397366, "mean_altitude_error": 0.007169669540410095, "reward_facing": 0.0, "reward_error_reduction": 0.0, "reward_velocity_match": 0.0, "reward_direction_bonus": 0.0, "reward_excess_penalty": 0.0, "reward_smoothness_penalty": 0.0, "reward_tracking_bonus": 0.0, "reward_alive_bonus": 0.0, "target_pattern": "", "target_speed": 0.0}
{"timesteps": 48000, "episode": 23, "episode_length": 2, "total_reward": 0.68007031083107, "terminated": false, "truncated": true, "mean_yaw_error": 0.6729233604254767, "max_yaw_error": 1.2354012835599029, "min_yaw_error": 0.11044543729105054, "std_yaw_error": 0.5624779231344262, "time_on_target": 0.0, "time_close": 0.5, "mean_action": 0.3940739184617996, "std_action": 0.6568333357572556, "mean_action_change": 1.313666671514511, "max_action": 1.0509072542190552, "action_reversals": 1, "mean_roll": -0.014354665015865388, "mean_pitch": -0.005674316560499008, "max_tilt": 0.04331261970907196, "mean_altitude_error": 0.0017651681638654604, "reward_facing": 0.0, "reward_error_reduction": 0.0, "reward_velocity_match": 0.0, "reward_direction_bonus": 0.0, "reward_excess_penalty": 0.0, "reward_smoothness_penalty": 0.0, "reward_tracking_bonus": 0.0, "reward_alive_bonus": 0.0, "target_pattern": "", "target_speed": 0.0}
{"timesteps": 48000, "episode": 24, "episode_length": 1, "total_reward": -0.6400468349456787, "terminated": false, "truncated": true, "mean_yaw_error": 1.4151601720987028, "max_yaw_error": 1.4151601720987028, "min_yaw_error": 1.4151601720987028, "std_yaw_error": 0.0, "time_on_target": 0.0, "time_close": 0.0, "mean_action": 0.36229509115219116, "std_action": 0.0, "mean_action_change": 0.0, "max_action": 0.36229509115219116, "action_reversals": 0, "mean_roll": 0.30385509083215956, "mean_pitch": -0.0362295760081204, "max_tilt": 0.30600735024235626, "mean_altitude_error": 0.04883915866184252, "reward_facing": 0.0, "reward_error_reduction": 0.0, "reward_velocity_match": 0.0, "reward_direction_bonus": 0.0, "reward_excess_penalty": 0.0, "reward_smoothness_penalty": 0.0, "reward_tracking_bonus": 0.0, "reward_alive_bonus": 0.0, "target_pattern": "", "target_speed": 0.0}
{"timesteps": 49656, "episode": 25, "episode_length": 1655, "total_reward": -1056.9818708029634, "terminated": true, "truncated": false, "mean_yaw_error": 1.3821721253307389, "max_yaw_error": 3.1413669160966813, "min_yaw_error": 0.00022502137770446842, "std_yaw_error": 0.9109720062133659, "time_on_target": 0.08157099697885196, "time_close": 0.12447129909365559, "mean_action": 0.044995509197209536, "std_action": 0.9926400631160579, "mean_action_change": 1.114593846975694, "max_action": 3.2768702507019043, "action_reversals": 823, "mean_roll": -0.696256195645199, "mean_pitch": 1.2259190756437608, "max_tilt": 1.4098405122571767, "mean_altitude_error": 0.090842287165822, "reward_facing": 0.0, "reward_error_reduction": 0.0, "reward_velocity_match": 0.0, "reward_direction_bonus": 0.0, "reward_excess_penalty": 0.0, "reward_smoothness_penalty": 0.0, "reward_tracking_bonus": 0.0, "reward_alive_bonus": 0.0, "target_pattern": "", "target_speed": 0.0}
{"timesteps": 57160, "episode": 26, "episode_length": 7503, "total_reward": -5374.777682510932, "terminated": true, "truncated": false, "mean_yaw_error": 1.4367332437855131, "max_yaw_error": 3.1412769543333146, "min_yaw_error": 2.9672210391570112e-05, "std_yaw_error": 0.9568433449975368, "time_on_target": 0.039184326269492205, "time_close": 0.12648274023723843, "mean_action": 0.02612732903090744, "std_action": 1.0024996795358359, "mean_action_change": 1.1270880435693487, "max_action": 4.124072551727295, "action_reversals": 3731, "mean_roll": 0.9579534830692246, "mean_pitch": 1.1560801150019755, "max_tilt": 1.5013980511601313, "mean_altitude_error": 0.06373139071084309, "reward_facing": 0.0, "reward_error_reduction": 0.0, "reward_velocity_match": 0.0, "reward_direction_bonus": 0.0, "reward_excess_penalty": 0.0, "reward_smoothness_penalty": 0.0, "reward_tracking_bonus": 0.0, "reward_alive_bonus": 0.0, "target_pattern": "", "target_speed": 0.0}
{"timesteps": 58072, "episode": 27, "episode_length": 908, "total_reward": -1061.5673541610595, "terminated": false, "truncated": true, "mean_yaw_error": 2.032371305237728, "max_yaw_error": 3.1396665330373907, "min_yaw_error": 0.00062223206131412, "std_yaw_error": 1.0767899765404272, "time_on_target": 0.053964757709251104, "time_close": 0.12555066079295155, "mean_action": -0.01268450183935447, "std_action": 1.0383466801998995, "mean_action_change": 1.1591886563325156, "max_action": 3.388324737548828, "action_reversals": 447, "mean_roll": 0.0063283038353722275, "mean_pitch": -0.0010046054857587368, "max_tilt": 0.876319628555902, "mean_altitude_error": 0.10407655526230769, "reward_facing": 0.0, "reward_error_reduction": 0.0, "reward_velocity_match": 0.0, "reward_direction_bonus": 0.0, "reward_excess_penalty": 0.0, "reward_smoothness_penalty": 0.0, "reward_tracking_bonus": 0.0, "reward_alive_bonus": 0.0, "target_pattern": "", "target_speed": 0.0}
{"timesteps": 58336, "episode": 28, "episode_length": 267, "total_reward": -214.6052585169673, "terminated": true, "truncated": false, "mean_yaw_error": 1.6193511102599196, "max_yaw_error": 3.141528313113054, "min_yaw_error": 0.022805802141702896, "std_yaw_error": 1.2006522989065098, "time_on_target": 0.24719101123595505, "time_close": 0.24719101123595505, "mean_action": -0.009254461231079888, "std_action": 0.9154978840631811, "mean_action_change": 1.0541079624843104, "max_action": 2.91741943359375, "action_reversals": 130, "mean_roll": -1.362217731201876, "mean_pitch": 0.4180712016880787, "max_tilt": 1.4249283058742643, "mean_altitude_error": 0.051284983530412595, "reward_facing": 0.0, "reward_error_reduction": 0.0, "reward_velocity_match": 0.0, "reward_direction_bonus": 0.0, "reward_excess_penalty": 0.0, "reward_smoothness_penalty": 0.0, "reward_tracking_bonus": 0.0, "reward_alive_bonus": 0.0, "target_pattern": "", "target_speed": 0.0}
{"timesteps": 64000, "episode": 29, "episode_length": 5660, "total_reward": -3860.796376573766, "terminated": false, "truncated": true, "mean_yaw_error": 1.5288973510607902, "max_yaw_error": 3.1408274997376133, "min_yaw_error": 0.0010993571455867124, "std_yaw_error": 1.1498078091269244, "time_on_target": 0.05724381625441696, "time_close": 0.2530035335689046, "mean_action": -0.006619479319626999, "std_action": 0.9937525693601759, "mean_action_change": 1.1172926647147223, "max_action": 3.8547942638397217, "action_reversals": 2793, "mean_roll": 0.03299306397412511, "mean_pitch": 0.09080025434599263, "max_tilt": 0.2637168453548188, "mean_altitude_error": 0.002823725855355191, "reward_facing": 0.0, "reward_error_reduction": 0.0, "reward_velocity_match": 0.0, "reward_direction_bonus": 0.0, "reward_excess_penalty": 0.0, "reward_smoothness_penalty": 0.0, "reward_tracking_bonus": 0.0, "reward_alive_bonus": 0.0, "target_pattern": "", "target_speed": 0.0}
{"timesteps": 64000, "episode": 30, "episode_length": 2, "total_reward": -2.575236976146698, "terminated": false, "truncated": true, "mean_yaw_error": 2.066433548466219, "max_yaw_error": 2.70009680761096, "min_yaw_error": 1.4327702893214778, "std_yaw_error": 0.6336632591447412, "time_on_target": 0.0, "time_close": 0.0, "mean_action": 0.9114954769611359, "std_action": 0.1495567262172699, "mean_action_change": 0.2991134524345398, "max_action": 1.0610522031784058, "action_reversals": 0, "mean_roll": -0.035484276213042475, "mean_pitch": -0.0011705371754200183, "max_tilt": 0.03550357750484495, "mean_altitude_error": 0.0030885726524660373, "reward_facing": 0.0, "reward_error_reduction": 0.0, "reward_velocity_match": 0.0, "reward_direction_bonus": 0.0, "reward_excess_penalty": 0.0, "reward_smoothness_penalty": 0.0, "reward_tracking_bonus": 0.0, "reward_alive_bonus": 0.0, "target_pattern": "", "target_speed": 0.0}
{"timesteps": 64000, "episode": 31, "episode_length": 1, "total_reward": -1.8127681016921997, "terminated": false, "truncated": true, "mean_yaw_error": 2.717769069395859, "max_yaw_error": 2.717769069395859, "min_yaw_error": 2.717769069395859, "std_yaw_error": 0.0, "time_on_target": 0.0, "time_close": 0.0, "mean_action": 0.8002209663391113, "std_action": 0.0, "mean_action_change": 0.0, "max_action": 0.8002209663391113, "action_reversals": 0, "mean_roll": -0.08494281949631907, "mean_pitch": -0.20176800517554783, "max_tilt": 0.21891918713649597, "mean_altitude_error": 0.0012646875039514782, "reward_facing": 0.0, "reward_error_reduction": 0.0, "reward_velocity_match": 0.0, "reward_direction_bonus": 0.0, "reward_excess_penalty": 0.0, "reward_smoothness_penalty": 0.0, "reward_tracking_bonus": 0.0, "reward_alive_bonus": 0.0, "target_pattern": "", "target_speed": 0.0}
{"timesteps": 64000, "episode": 32, "episode_length": 4, "total_reward": 0.27969557070173323, "terminated": false, "truncated": true, "mean_yaw_error": 0.7256482403844069, "max_yaw_error": 1.9470567576242739, "min_yaw_error": 0.06843918458771632, "std_yaw_error": 0.7228768288231173, "time_on_target": 0.25, "time_close": 0.25, "mean_action": -0.506639376282692, "std_action": 0.6655637173245337, "mean_action_change": 1.0648159384727478, "max_action": 1.2414201498031616, "action_reversals": 2, "mean_roll": 0.07216271641833538, "mean_pitch": -0.01983477874600097, "max_tilt": 0.18667925215877224, "mean_altitude_error": 0.0012180112290119394, "reward_facing": 0.0, "reward_error_reduction": 0.0, "reward_velocity_match": 0.0, "reward_direction_bonus": 0.0, "reward_excess_penalty": 0.0, "reward_smoothness_penalty": 0.0, "reward_tracking_bonus": 0.0, "reward_alive_bonus": 0.0, "target_pattern": "", "target_speed": 0.0}
{"timesteps": 65656, "episode": 33, "episode_length": 1655, "total_reward": -939.478943862734, "terminated": false, "truncated": true, "mean_yaw_error": 1.2528747838036212, "max_yaw_error": 2.327250761289729, "min_yaw_error": 0.06848914550954592, "std_yaw_error": 0.7448344086300591, "time_on_target": 0.021148036253776436, "time_close": 0.17462235649546828, "mean_action": 0.011353964003765241, "std_action": 0.9932574803461814, "mean_action_change": 1.1081794991834764, "max_action": 3.7046444416046143, "action_reversals": 806, "mean_roll": -9.848964512669825e-05, "mean_pitch": -0.013968181392954937, "max_tilt": 0.263283462540119, "mean_altitude_error": 0.0029307824652412546, "reward_facing": 0.0, "reward_error_reduction": 0.0, "reward_velocity_match": 0.0, "reward_direction_bonus": 0.0, "reward_excess_penalty": 0.0, "reward_smoothness_penalty": 0.0, "reward_tracking_bonus": 0.0, "reward_alive_bonus": 0.0, "target_pattern": "", "target_speed": 0.0}
{"timesteps": 73160, "episode": 34, "episode_length": 7503, "total_reward": -1296.4866011162958, "terminated": false, "truncated": true, "mean_yaw_error": 0.9280788666970514, "max_yaw_error": 2.85975729891287, "min_yaw_error": 7.976720935725368e-05, "std_yaw_error": 0.5746215282318757, "time_on_target": 0.06184192989470878, "time_close": 0.2031187524990004, "mean_action": 0.020002627913431367, "std_action": 1.0320415492547967, "mean_action_change": 1.1621236250615028, "max_action": 3.841395854949951, "action_reversals": 3728, "mean_roll": 0.04682334205574241, "mean_pitch": 0.006964420810180042, "max_tilt": 1.1077380091373126, "mean_altitude_error": 0.0381300912713076, "reward_facing": 0.0, "reward_error_reduction": 0.0, "reward_velocity_match": 0.0, "reward_direction_bonus": 0.0, "reward_excess_penalty": 0.0, "reward_smoothness_penalty": 0.0, "reward_tracking_bonus": 0.0, "reward_alive_bonus": 0.0, "target_pattern": "", "target_speed": 0.0}
{"timesteps": 73944, "episode": 35, "episode_length": 782, "total_reward": -363.23885825276375, "terminated": true, "truncated": false, "mean_yaw_error": 1.2306849990759359, "max_yaw_error": 3.0546469253198207, "min_yaw_error": 0.05118713726920722, "std_yaw_error": 1.0306808916215278, "time_on_target": 0.03580562659846547, "time_close": 0.2506393861892583, "mean_action": 0.06826287650210244, "std_action": 1.0014698309984695, "mean_action_change": 1.1337372147634377, "max_action": 2.937650680541992, "action_reversals": 386, "mean_roll": -1.2827400594004215, "mean_pitch": 0.5729300247320479, "max_tilt": 1.404873970585996, "mean_altitude_error": 0.2387880095401132, "reward_facing": 0.0, "reward_error_reduction": 0.0, "reward_velocity_match": 0.0, "reward_direction_bonus": 0.0, "reward_excess_penalty": 0.0, "reward_smoothness_penalty": 0.0, "reward_tracking_bonus": 0.0, "reward_alive_bonus": 0.0, "target_pattern": "", "target_speed": 0.0}
{"timesteps": 74072, "episode": 36, "episode_length": 126, "total_reward": -61.34382991865277, "terminated": false, "truncated": true, "mean_yaw_error": 1.262790482840452, "max_yaw_error": 3.09935661345697, "min_yaw_error": 0.1862455461222738, "std_yaw_error": 1.003846206117665, "time_on_target": 0.0, "time_close": 0.24603174603174602, "mean_action": -0.1674229327204918, "std_action": 0.9288583601588077, "mean_action_change": 0.9516757406890393, "max_action": 2.7654285430908203, "action_reversals": 51, "mean_roll": 0.07521685835130407, "mean_pitch": -0.7832958599129844, "max_tilt": 0.8927116533228612, "mean_altitude_error": 0.18818675700264578, "reward_facing": 0.0, "reward_error_reduction": 0.0, "reward_velocity_match": 0.0, "reward_direction_bonus": 0.0, "reward_excess_penalty": 0.0, "reward_smoothness_penalty": 0.0, "reward_tracking_bonus": 0.0, "reward_alive_bonus": 0.0, "target_pattern": "", "target_speed": 0.0}
{"timesteps": 74336, "episode": 37, "episode_length": 267, "total_reward": -170.6028317771852, "terminated": false, "truncated": true, "mean_yaw_error": 1.427165496787707, "max_yaw_error": 3.140472255510056, "min_yaw_error": 0.189376746659288, "std_yaw_error": 1.0810053894133977, "time_on_target": 0.0, "time_close": 0.250936329588015, "mean_action": -0.04004462821625369, "std_action": 1.0215180361551963, "mean_action_change": 1.1926073078766353, "max_action": 3.11482834815979, "action_reversals": 139, "mean_roll": -0.10973747207688303, "mean_pitch": -0.03259228758661277, "max_tilt": 0.6468375005226337, "mean_altitude_error": 0.05420164563184346, "reward_facing": 0.0, "reward_error_reduction": 0.0, "reward_velocity_match": 0.0, "reward_direction_bonus": 0.0, "reward_excess_penalty": 0.0, "reward_smoothness_penalty": 0.0, "reward_tracking_bonus": 0.0, "reward_alive_bonus": 0.0, "target_pattern": "", "target_speed": 0.0}
{"timesteps": 80000, "episode": 38, "episode_length": 5660, "total_reward": -2801.5837598252765, "terminated": false, "truncated": true, "mean_yaw_error": 1.3080929722679653, "max_yaw_error": 3.073855682322837, "min_yaw_error": 0.00034319586164073985, "std_yaw_error": 1.0969818201841977, "time_on_target": 0.052296819787985865, "time_close": 0.41978798586572436, "mean_action": -0.015399543869197237, "std_action": 1.0115744278452423, "mean_action_change": 1.154388675827419, "max_action": 4.036471843719482, "action_reversals": 2863, "mean_roll": -0.00258973644559267, "mean_pitch": 0.0070853808695329245, "max_tilt": 0.9853612311104086, "mean_altitude_error": 0.03709962229374366, "reward_facing": 0.0, "reward_error_reduction": 0.0, "reward_velocity_match": 0.0, "reward_direction_bonus": 0.0, "reward_excess_penalty": 0.0, "reward_smoothness_penalty": 0.0, "reward_tracking_bonus": 0.0, "reward_alive_bonus": 0.0, "target_pattern": "", "target_speed": 0.0}
{"timesteps": 80000, "episode": 39, "episode_length": 2, "total_reward": -1.8440170213580132, "terminated": false, "truncated": true, "mean_yaw_error": 1.3142781943551385, "max_yaw_error": 2.0761212289171036, "min_yaw_error": 0.5524351597931731, "std_yaw_error": 0.7618430345619652, "time_on_target": 0.0, "time_close": 0.0, "mean_action": 1.364371657371521, "std_action": 0.23823940753936768, "mean_action_change": 0.47647881507873535, "max_action": 1.6026110649108887, "action_reversals": 0, "mean_roll": -0.01265377983395626, "mean_pitch": -0.024458379267315214, "max_tilt": 0.381780842976873, "mean_altitude_error": 0.041979642024313424, "reward_facing": 0.0, "reward_error_reduction": 0.0, "reward_velocity_match": 0.0, "reward_direction_bonus": 0.0, "reward_excess_penalty": 0.0, "reward_smoothness_penalty": 0.0, "reward_tracking_bonus": 0.0, "reward_alive_bonus": 0.0, "target_pattern": "", "target_speed": 0.0}
{"timesteps": 80000, "episode": 40, "episode_length": 5, "total_reward": -3.0626781284809113, "terminated": false, "truncated": true, "mean_yaw_error": 1.4115797882373426, "max_yaw_error": 3.0757528156999223, "min_yaw_error": 0.2361540639086722, "std_yaw_error": 1.0886135983564826, "time_on_target": 0.0, "time_close": 0.4, "mean_action": -0.15149682760238647, "std_action": 1.4760997951681147, "mean_action_change": 1.668704330921173, "max_action": 2.1156160831451416, "action_reversals": 2, "mean_roll": -0.07892648918578307, "mean_pitch": 0.24199351278510228, "max_tilt": 0.25453929151560667, "mean_altitude_error": 0.009077993818152264, "reward_facing": 0.0, "reward_error_reduction": 0.0, "reward_velocity_match": 0.0, "reward_direction_bonus": 0.0, "reward_excess_penalty": 0.0, "reward_smoothness_penalty": 0.0, "reward_tracking_bonus": 0.0, "reward_alive_bonus": 0.0, "target_pattern": "", "target_speed": 0.0}
{"timesteps": 81656, "episode": 41, "episode_length": 1655, "total_reward": -1226.0939133029897, "terminated": false, "truncated": true, "mean_yaw_error": 1.427729327852381, "max_yaw_error": 3.140997762205662, "min_yaw_error": 0.1809593759932029, "std_yaw_error": 1.0047457685163996, "time_on_target": 0.0, "time_close": 0.3323262839879154, "mean_action": -0.02722807309683131, "std_action": 1.017108225504027, "mean_action_change": 1.1555387037474, "max_action": 4.147668838500977, "action_reversals": 836, "mean_roll": 0.012736853997115391, "mean_pitch": -0.007352158083241973, "max_tilt": 0.7415763798810111, "mean_altitude_error": 0.01774993873546131, "reward_facing": 0.0, "reward_error_reduction": 0.0, "reward_velocity_match": 0.0, "reward_direction_bonus": 0.0, "reward_excess_penalty": 0.0, "reward_smoothness_penalty": 0.0, "reward_tracking_bonus": 0.0, "reward_alive_bonus": 0.0, "target_pattern": "", "target_speed": 0.0}
{"timesteps": 82112, "episode": 42, "episode_length": 456, "total_reward": -285.1150828106329, "terminated": true, "truncated": false, "mean_yaw_error": 1.1484600309551065, "max_yaw_error": 2.8720836829187033, "min_yaw_error": 0.14329231611304757, "std_yaw_error": 0.9750258713863049, "time_on_target": 0.0, "time_close": 0.4451754385964912, "mean_action": -0.08160678950840966, "std_action": 1.0067416450198334, "mean_action_change": 1.1742593554677545, "max_action": 3.3797507286071777, "action_reversals": 229, "mean_roll": 0.31912661285886545, "mean_pitch": -1.3777996867447897, "max_tilt": 1.4142749986579033, "mean_altitude_error": 0.0723188622652629, "reward_facing": 0.0, "reward_error_reduction": 0.0, "reward_velocity_match": 0.0, "reward_direction_bonus": 0.0, "reward_excess_penalty": 0.0, "reward_smoothness_penalty": 0.0, "reward_tracking_bonus": 0.0, "reward_alive_bonus": 0.0, "target_pattern": "", "target_speed": 0.0}
{"timesteps": 84960, "episode": 43, "episode_length": 2843, "total_reward": -108.49656082276488, "terminated": true, "truncated": false, "mean_yaw_error": 0.7961734246832363, "max_yaw_error": 3.1398072894114155, "min_yaw_error": 0.00029297590907739795, "std_yaw_error": 0.7817982434466156, "time_on_target": 0.08265916285613788, "time_close": 0.43756595145972565, "mean_action": -0.07452407448673427, "std_action": 1.013447393064858, "mean_action_change": 1.1509223043876664, "max_action": 4.317040920257568, "action_reversals": 1411, "mean_roll": 1.0911265117448994, "mean_pitch": -0.9985921341579331, "max_tilt": 1.4791021989824393, "mean_altitude_error": 0.06354744170523897, "reward_facing": 0.0, "reward_error_reduction": 0.0, "reward_velocity_match": 0.0, "reward_direction_bonus": 0.0, "reward_excess_penalty": 0.0, "reward_smoothness_penalty": 0.0, "reward_tracking_bonus": 0.0, "reward_alive_bonus": 0.0, "target_pattern": "", "target_speed": 0.0}
{"timesteps": 89160, "episode": 44, "episode_length": 4204, "total_reward": 2343.06343390602, "terminated": false, "truncated": true, "mean_yaw_error": 0.43671884069933714, "max_yaw_error": 1.6230612948015837, "min_yaw_error": 0.00012592634885774125, "std_yaw_error": 0.35525653245796573, "time_on_target": 0.2257373929590866, "time_close": 0.47835394862036157, "mean_action": -0.0005753842277937949, "std_action": 1.0311416319823354, "mean_action_change": 1.154063640909534, "max_action": 3.4775617122650146, "action_reversals": 2089, "mean_roll": 0.005930326037779554, "mean_pitch": -0.003952051763199162, "max_tilt": 0.6715109841727532, "mean_altitude_error": 0.004564441111472215, "reward_facing": 0.0, "reward_error_reduction": 0.0, "reward_velocity_match": 0.0, "reward_direction_bonus": 0.0, "reward_excess_penalty": 0.0, "reward_smoothness_penalty": 0.0, "reward_tracking_bonus": 0.0, "reward_alive_bonus": 0.0, "target_pattern": "", "target_speed": 0.0}
{"timesteps": 89944, "episode": 45, "episode_length": 782, "total_reward": 210.91320608207025, "terminated": false, "truncated": true, "mean_yaw_error": 0.660939211712832, "max_yaw_error": 3.118120260909259, "min_yaw_error": 0.00021369313307251022, "std_yaw_error": 0.7951775211679315, "time_on_target": 0.1329923273657289, "time_close": 0.4258312020460358, "mean_action": -0.02481681222091322, "std_action": 1.0019092602493118, "mean_action_change": 1.1509011047158901, "max_action": 2.9625039100646973, "action_reversals": 388, "mean_roll": 0.03146186078527301, "mean_pitch": -0.2866385241970003, "max_tilt": 1.2814411174345424, "mean_altitude_error": 0.0329902852906148, "reward_facing": 0.0, "reward_error_reduction": 0.0, "reward_velocity_match": 0.0, "reward_direction_bonus": 0.0, "reward_excess_penalty": 0.0, "reward_smoothness_penalty": 0.0, "reward_tracking_bonus": 0.0, "reward_alive_bonus": 0.0, "target_pattern": "", "target_speed": 0.0}
{"timesteps": 90336, "episode": 46, "episode_length": 393, "total_reward": -56.69479857181432, "terminated": false, "truncated": true, "mean_yaw_error": 0.9575354498752088, "max_yaw_error": 2.751663262393964, "min_yaw_error": 0.023507253188367935, "std_yaw_error": 0.9215320822459517, "time_on_target": 0.04071246819338423, "time_close": 0.32061068702290074, "mean_action": 0.004079214309083899, "std_action": 1.0601276414662373, "mean_action_change": 1.2027016490583822, "max_action": 2.8951632976531982, "action_reversals": 198, "mean_roll": -0.139607222204359, "mean_pitch": -0.3030238630656745, "max_tilt": 0.6974702138099186, "mean_altitude_error": 0.14746139040133766, "reward_facing": 0.0, "reward_error_reduction": 0.0, "reward_velocity_match": 0.0, "reward_direction_bonus": 0.0, "reward_excess_penalty": 0.0, "reward_smoothness_penalty": 0.0, "reward_tracking_bonus": 0.0, "reward_alive_bonus": 0.0, "target_pattern": "", "target_speed": 0.0}
{"timesteps": 91968, "episode": 47, "episode_length": 1633, "total_reward": -789.5685676523717, "terminated": true, "truncated": false, "mean_yaw_error": 1.1803230866019794, "max_yaw_error": 3.141351679942089, "min_yaw_error": 0.17805482903473416, "std_yaw_error": 0.8745436550760424, "time_on_target": 0.0, "time_close": 0.11022657685241886, "mean_action": 0.058351439160944416, "std_action": 1.0436243587953378, "mean_action_change": 1.1774027743468098, "max_action": 3.148420810699463, "action_reversals": 828, "mean_roll": 0.3742355551845002, "mean_pitch": 1.3577934712786033, "max_tilt": 1.408423005141229, "mean_altitude_error": 0.15260487636851433, "reward_facing": 0.0, "reward_error_reduction": 0.0, "reward_velocity_match": 0.0, "reward_direction_bonus": 0.0, "reward_excess_penalty": 0.0, "reward_smoothness_penalty": 0.0, "reward_tracking_bonus": 0.0, "reward_alive_bonus": 0.0, "target_pattern": "", "target_speed": 0.0}
{"timesteps": 92416, "episode": 48, "episode_length": 448, "total_reward": -274.67212375482995, "terminated": true, "truncated": false, "mean_yaw_error": 1.1835688144189052, "max_yaw_error": 2.988389607200244, "min_yaw_error": 0.07754778672991612, "std_yaw_error": 0.8068054019879519, "time_on_target": 0.020089285714285716, "time_close": 0.125, "mean_action": 0.002698178037202784, "std_action": 0.9712283339588211, "mean_action_change": 1.0811393389299144, "max_action": 3.219352960586548, "action_reversals": 233, "mean_roll": 0.7708902799607414, "mean_pitch": 1.192563421243755, "max_tilt": 1.4200279354387926, "mean_altitude_error": 0.012676669217790522, "reward_facing": 0.0, "reward_error_reduction": 0.0, "reward_velocity_match": 0.0, "reward_direction_bonus": 0.0, "reward_excess_penalty": 0.0, "reward_smoothness_penalty": 0.0, "reward_tracking_bonus": 0.0, "reward_alive_bonus": 0.0, "target_pattern": "", "target_speed": 0.0}
{"timesteps": 96000, "episode": 49, "episode_length": 3579, "total_reward": -741.2681910418005, "terminated": false, "truncated": true, "mean_yaw_error": 0.9216176172094573, "max_yaw_error": 1.9815797312655872, "min_yaw_error": 0.0005304679192307927, "std_yaw_error": 0.5342838071858694, "time_on_target": 0.050293378038558254, "time_close": 0.19279128248113997, "mean_action": 0.0772025817653909, "std_action": 1.0201964560960524, "mean_action_change": 1.1469093103288706, "max_action": 4.341504096984863, "action_reversals": 1763, "mean_roll": -0.04190685935379579, "mean_pitch": 0.0359056223160881, "max_tilt": 0.7299627884032697, "mean_altitude_error": 0.021867969356155766, "reward_facing": 0.0, "reward_error_reduction": 0.0, "reward_velocity_match": 0.0, "reward_direction_bonus": 0.0, "reward_excess_penalty": 0.0, "reward_smoothness_penalty": 0.0, "reward_tracking_bonus": 0.0, "reward_alive_bonus": 0.0, "target_pattern": "", "target_speed": 0.0}
{"timesteps": 96000, "episode": 50, "episode_length": 2, "total_reward": -0.32479599118232727, "terminated": false, "truncated": true, "mean_yaw_error": 0.8319835548351516, "max_yaw_error": 1.1120997124070326, "min_yaw_error": 0.5518673972632706, "std_yaw_error": 0.280116157571881, "time_on_target": 0.0, "time_close": 0.0, "mean_action": 0.06884036958217621, "std_action": 0.4492895156145096, "mean_action_change": 0.8985790312290192, "max_action": 0.5181298851966858, "action_reversals": 1, "mean_roll": 0.549389566661356, "mean_pitch": 0.5056566835179871, "max_tilt": 0.746670996853877, "mean_altitude_error": 0.32662684943735587, "reward_facing": 0.0, "reward_error_reduction": 0.0, "reward_velocity_match": 0.0, "reward_direction_bonus": 0.0, "reward_excess_penalty": 0.0, "reward_smoothness_penalty": 0.0, "reward_tracking_bonus": 0.0, "reward_alive_bonus": 0.0, "target_pattern": "", "target_speed": 0.0}
{"timesteps": 96000, "episode": 51, "episode_length": 5, "total_reward": -0.652649313211441, "terminated": false, "truncated": true, "mean_yaw_error": 0.7974615167750382, "max_yaw_error": 1.1876715937984326, "min_yaw_error": 0.3366474068881505, "std_yaw_error": 0.31807408023163286, "time_on_target": 0.0, "time_close": 0.2, "mean_action": 0.21029000878334045, "std_action": 1.0045636397169464, "mean_action_change": 0.901784636080265, "max_action": 2.1295359134674072, "action_reversals": 1, "mean_roll": 0.027504508674264534, "mean_pitch": -0.040316886435919665, "max_tilt": 0.3103815999351665, "mean_altitude_error": 0.01771483038899415, "reward_facing": 0.0, "reward_error_reduction": 0.0, "reward_velocity_match": 0.0, "reward_direction_bonus": 0.0, "reward_excess_penalty": 0.0, "reward_smoothness_penalty": 0.0, "reward_tracking_bonus": 0.0, "reward_alive_bonus": 0.0, "target_pattern": "", "target_speed": 0.0}
{"timesteps": 97760, "episode": 52, "episode_length": 1757, "total_reward": -1172.9599902671725, "terminated": true, "truncated": false, "mean_yaw_error": 1.3084430487563394, "max_yaw_error": 2.7671119218553826, "min_yaw_error": 0.21043196742924142, "std_yaw_error": 0.9406845540950869, "time_on_target": 0.0, "time_close": 0.040409789413773475, "mean_action": -0.007673511479853498, "std_action": 1.0345641788643676, "mean_action_change": 1.1675151754340374, "max_action": 3.704291582107544, "action_reversals": 894, "mean_roll": -1.387376090592832, "mean_pitch": 0.3295543299389322, "max_tilt": 1.425979829145612, "mean_altitude_error": 0.05168199663770642, "reward_facing": 0.0, "reward_error_reduction": 0.0, "reward_velocity_match": 0.0, "reward_direction_bonus": 0.0, "reward_excess_penalty": 0.0, "reward_smoothness_penalty": 0.0, "reward_tracking_bonus": 0.0, "reward_alive_bonus": 0.0, "target_pattern": "", "target_speed": 0.0}
{"timesteps": 98112, "episode": 53, "episode_length": 354, "total_reward": -219.81654242053628, "terminated": false, "truncated": true, "mean_yaw_error": 1.215068197656279, "max_yaw_error": 2.748063848270787, "min_yaw_error": 0.20151817691439675, "std_yaw_error": 0.8947913134059406, "time_on_target": 0.0, "time_close": 0.12429378531073447, "mean_action": -0.009819083315672848, "std_action": 1.001881932290509, "mean_action_change": 1.1504588222642964, "max_action": 3.07025146484375, "action_reversals": 187, "mean_roll": -0.0007481317923456724, "mean_pitch": 0.0006614079417306613, "max_tilt": 0.2725349951621133, "mean_altitude_error": 0.003175141048436443, "reward_facing": 0.0, "reward_error_reduction": 0.0, "reward_velocity_match": 0.0, "reward_direction_bonus": 0.0, "reward_excess_penalty": 0.0, "reward_smoothness_penalty": 0.0, "reward_tracking_bonus": 0.0, "reward_alive_bonus": 0.0, "target_pattern": "", "target_speed": 0.0}
{"timesteps": 100960, "episode": 54, "episode_length": 2843, "total_reward": -1282.1000036412734, "terminated": false, "truncated": true, "mean_yaw_error": 1.1300047677629976, "max_yaw_error": 2.7458452567181015, "min_yaw_error": 0.00048439568497634457, "std_yaw_error": 0.8177111734832373, "time_on_target": 0.04396763981709462, "time_close": 0.253253605346465, "mean_action": 0.04217873276199856, "std_action": 1.0236259642727268, "mean_action_change": 1.1601395621098824, "max_action": 3.7823069095611572, "action_reversals": 1421, "mean_roll": 0.3562213166701854, "mean_pitch": 0.04590345462475977, "max_tilt": 0.8042928857390891, "mean_altitude_error": 0.013001183541153816, "reward_facing": 0.0, "reward_error_reduction": 0.0, "reward_velocity_match": 0.0, "reward_direction_bonus": 0.0, "reward_excess_penalty": 0.0, "reward_smoothness_penalty": 0.0, "reward_tracking_bonus": 0.0, "reward_alive_bonus": 0.0, "target_pattern": "", "target_speed": 0.0}
{"timesteps": 103656, "episode": 55, "episode_length": 2698, "total_reward": -822.5497391060926, "terminated": true, "truncated": false, "mean_yaw_error": 0.9328867856107873, "max_yaw_error": 3.1254433976097156, "min_yaw_error": 0.0003804126891446836, "std_yaw_error": 0.7664305023544918, "time_on_target": 0.04558932542624166, "time_close": 0.31653076352853965, "mean_action": 0.08255265303732091, "std_action": 1.0271685276406721, "mean_action_change": 1.1724261527305726, "max_action": 3.536992073059082, "action_reversals": 1377, "mean_roll": 1.1145231219001757, "mean_pitch": -0.8902089863628537, "max_tilt": 1.4264059130034807, "mean_altitude_error": 0.17409959475780168, "reward_facing": 0.0, "reward_error_reduction": 0.0, "reward_velocity_match": 0.0, "reward_direction_bonus": 0.0, "reward_excess_penalty": 0.0, "reward_smoothness_penalty": 0.0, "reward_tracking_bonus": 0.0, "reward_alive_bonus": 0.0, "target_pattern": "", "target_speed": 0.0}
{"timesteps": 105064, "episode": 56, "episode_length": 1406, "total_reward": -842.088751502175, "terminated": true, "truncated": false, "mean_yaw_error": 1.3414643860974587, "max_yaw_error": 3.0565358990808464, "min_yaw_error": 0.0004195446324466476, "std_yaw_error": 1.0837365735431883, "time_on_target": 0.0860597439544808, "time_close": 0.22475106685633, "mean_action": 0.03898429470653427, "std_action": 1.0424542886312087, "mean_action_change": 1.1656363965883798, "max_action": 3.1644506454467773, "action_reversals": 696, "mean_roll": 1.4579457820039587, "mean_pitch": -0.1277522422257893, "max_tilt": 1.4635322130574548, "mean_altitude_error": 0.12120118857473021, "reward_facing": 0.0, "reward_error_reduction": 0.0, "reward_velocity_match": 0.0, "reward_direction_bonus": 0.0, "reward_excess_penalty": 0.0, "reward_smoothness_penalty": 0.0, "reward_tracking_bonus": 0.0, "reward_alive_bonus": 0.0, "target_pattern": "", "target_speed": 0.0}
{"timesteps": 108416, "episode": 57, "episode_length": 3356, "total_reward": -2348.3816699240124, "terminated": false, "truncated": true, "mean_yaw_error": 1.4995384016687954, "max_yaw_error": 3.141549294290317, "min_yaw_error": 3.9263549561837335e-05, "std_yaw_error": 1.0832845246735452, "time_on_target": 0.10011918951132301, "time_close": 0.265792610250298, "mean_action": 0.019002348429210378, "std_action": 0.9986718483389448, "mean_action_change": 1.1400755897819463, "max_action": 3.5823283195495605, "action_reversals": 1691, "mean_roll": 0.6243721850616621, "mean_pitch": 0.4583264003828288, "max_tilt": 0.8454316113808261, "mean_altitude_error": 0.07957754604705304, "reward_facing": 0.0, "reward_error_reduction": 0.0, "reward_velocity_match": 0.0, "reward_direction_bonus": 0.0, "reward_excess_penalty": 0.0, "reward_smoothness_penalty": 0.0, "reward_tracking_bonus": 0.0, "reward_alive_bonus": 0.0, "target_pattern": "", "target_speed": 0.0}
{"timesteps": 112000, "episode": 58, "episode_length": 3579, "total_reward": -1295.73001637977, "terminated": false, "truncated": true, "mean_yaw_error": 1.16302974787454, "max_yaw_error": 3.141561139285906, "min_yaw_error": 0.0157151605671633, "std_yaw_error": 0.9833405147025054, "time_on_target": 0.11316010058675607, "time_close": 0.2618049734562727, "mean_action": 0.02403195751138754, "std_action": 1.0129826646382607, "mean_action_change": 1.153770705832084, "max_action": 3.456130027770996, "action_reversals": 1838, "mean_roll": 0.0029452130525849662, "mean_pitch": 0.003204579397083806, "max_tilt": 0.9838600560676601, "mean_altitude_error": 0.11067620525127003, "reward_facing": 0.0, "reward_error_reduction": 0.0, "reward_velocity_match": 0.0, "reward_direction_bonus": 0.0, "reward_excess_penalty": 0.0, "reward_smoothness_penalty": 0.0, "reward_tracking_bonus": 0.0, "reward_alive_bonus": 0.0, "target_pattern": "", "target_speed": 0.0}
{"timesteps": 112000, "episode": 59, "episode_length": 2, "total_reward": -2.292635589838028, "terminated": false, "truncated": true, "mean_yaw_error": 1.8388342815362184, "max_yaw_error": 2.763943014388786, "min_yaw_error": 0.9137255486836507, "std_yaw_error": 0.9251087328525677, "time_on_target": 0.0, "time_close": 0.0, "mean_action": -1.0151576697826385, "std_action": 0.3275121748447418, "mean_action_change": 0.6550243496894836, "max_action": 1.3426698446273804, "action_reversals": 0, "mean_roll": 0.4006686454387323, "mean_pitch": -0.20408816886489634, "max_tilt": 0.4496524703683224, "mean_altitude_error": 0.08938888146232915, "reward_facing": 0.0, "reward_error_reduction": 0.0, "reward_velocity_match": 0.0, "reward_direction_bonus": 0.0, "reward_excess_penalty": 0.0, "reward_smoothness_penalty": 0.0, "reward_tracking_bonus": 0.0, "reward_alive_bonus": 0.0, "target_pattern": "", "target_speed": 0.0}
{"timesteps": 112000, "episode": 60, "episode_length": 5, "total_reward": -0.6944662854075432, "terminated": false, "truncated": true, "mean_yaw_error": 0.9414456486237752, "max_yaw_error": 2.728290285522921, "min_yaw_error": 0.0995099202614903, "std_yaw_error": 0.9488595263771621, "time_on_target": 0.2, "time_close": 0.2, "mean_action": -0.09359830319881439, "std_action": 0.579499444892636, "mean_action_change": 0.45128558203577995, "max_action": 0.7946823239326477, "action_reversals": 1, "mean_roll": 0.14783782046745775, "mean_pitch": -0.030429812269370703, "max_tilt": 0.4187334932515695, "mean_altitude_error": 0.06989162864393694, "reward_facing": 0.0, "reward_error_reduction": 0.0, "reward_velocity_match": 0.0, "reward_direction_bonus": 0.0, "reward_excess_penalty": 0.0, "reward_smoothness_penalty": 0.0, "reward_tracking_bonus": 0.0, "reward_alive_bonus": 0.0, "target_pattern": "", "target_speed": 0.0}
{"timesteps": 113760, "episode": 61, "episode_length": 1757, "total_reward": -726.0538869457087, "terminated": false, "truncated": true, "mean_yaw_error": 1.2617994278971236, "max_yaw_error": 2.764302795851285, "min_yaw_error": 0.00042383489168866463, "std_yaw_error": 0.9774831665681424, "time_on_target": 0.12464428002276608, "time_close": 0.18554354012521343, "mean_action": 0.06518118376529568, "std_action": 1.0437185762478574, "mean_action_change": 1.168383465364898, "max_action": 4.194080829620361, "action_reversals": 886, "mean_roll": 0.016754932881906305, "mean_pitch": 0.05400368647695447, "max_tilt": 0.8891605164972538, "mean_altitude_error": 0.06368122808711747, "reward_facing": 0.0, "reward_error_reduction": 0.0, "reward_velocity_match": 0.0, "reward_direction_bonus": 0.0, "reward_excess_penalty": 0.0, "reward_smoothness_penalty": 0.0, "reward_tracking_bonus": 0.0, "reward_alive_bonus": 0.0, "target_pattern": "", "target_speed": 0.0}
{"timesteps": 114112, "episode": 62, "episode_length": 354, "total_reward": -212.6615006700158, "terminated": false, "truncated": true, "mean_yaw_error": 1.3414024566494336, "max_yaw_error": 2.4971803978221074, "min_yaw_error": 0.0002555847533704629, "std_yaw_error": 0.8636011982822671, "time_on_target": 0.1271186440677966, "time_close": 0.211864406779661, "mean_action": 0.20772403393119657, "std_action": 1.0205509005095799, "mean_action_change": 1.1156679954611968, "max_action": 3.421811580657959, "action_reversals": 164, "mean_roll": 0.13556635085741603, "mean_pitch": 0.6769493706708174, "max_tilt": 0.6903902417737462, "mean_altitude_error": 0.05678855599519292, "reward_facing": 0.0, "reward_error_reduction": 0.0, "reward_velocity_match": 0.0, "reward_direction_bonus": 0.0, "reward_excess_penalty": 0.0, "reward_smoothness_penalty": 0.0, "reward_tracking_bonus": 0.0, "reward_alive_bonus": 0.0, "target_pattern": "", "target_speed": 0.0}
{"timesteps": 116896, "episode": 63, "episode_length": 2782, "total_reward": -2107.8730111221084, "terminated": true, "truncated": false, "mean_yaw_error": 1.3928331666305818, "max_yaw_error": 2.856837659378075, "min_yaw_error": 8.800706475084709e-05, "std_yaw_error": 0.7593708157052705, "time_on_target": 0.0794392523364486, "time_close": 0.12473040977713874, "mean_action": 0.17150901748559763, "std_action": 1.0234269622363346, "mean_action_change": 1.1585145000849255, "max_action": 3.413872003555298, "action_reversals": 1361, "mean_roll": -1.0485413775746324, "mean_pitch": 0.9729474611860056, "max_tilt": 1.4304075582554792, "mean_altitude_error": 0.12642428048467505, "reward_facing": 0.0, "reward_error_reduction": 0.0, "reward_velocity_match": 0.0, "reward_direction_bonus": 0.0, "reward_excess_penalty": 0.0, "reward_smoothness_penalty": 0.0, "reward_tracking_bonus": 0.0, "reward_alive_bonus": 0.0, "target_pattern": "", "target_speed": 0.0}
{"timesteps": 118440, "episode": 64, "episode_length": 1540, "total_reward": -1111.5075677991845, "terminated": true, "truncated": false, "mean_yaw_error": 1.32098896536112, "max_yaw_error": 2.960018846234531, "min_yaw_error": 0.15593948184749357, "std_yaw_error": 0.826503097103749, "time_on_target": 0.0, "time_close": 0.13246753246753246, "mean_action": 0.020643411544695883, "std_action": 1.0125913677942302, "mean_action_change": 1.1417442333676973, "max_action": 3.8626928329467773, "action_reversals": 754, "mean_roll": 1.1271289118747312, "mean_pitch": -1.0585514893167336, "max_tilt": 1.5462699762714758, "mean_altitude_error": 0.45940244496637234, "reward_facing": 0.0, "reward_error_reduction": 0.0, "reward_velocity_match": 0.0, "reward_direction_bonus": 0.0, "reward_excess_penalty": 0.0, "reward_smoothness_penalty": 0.0, "reward_tracking_bonus": 0.0, "reward_alive_bonus": 0.0, "target_pattern": "", "target_speed": 0.0}
