{"timesteps": 16000, "episode": 1, "episode_length": 15993, "total_reward": -13272.368101160926, "terminated": false, "truncated": true, "mean_yaw_error": 1.5521975676686748, "max_yaw_error": 3.1415640765769375, "min_yaw_error": 0.00023303630697841377, "std_yaw_error": 0.9299714291505291, "time_on_target": 0.02582379791158632, "time_close": 0.1162383542799975, "mean_action": -0.0004342709991540363, "std_action": 1.0017120081160378, "mean_action_change": 1.1326509553223845, "max_action": 3.613779067993164, "action_reversals": 8061, "mean_roll": -0.0006290064678815116, "mean_pitch": 0.008025698737089273, "max_tilt": 0.8078565496837349, "mean_altitude_error": 0.011935023709230531, "reward_facing": 0.0, "reward_error_reduction": 0.0, "reward_velocity_match": 0.0, "reward_direction_bonus": 0.0, "reward_excess_penalty": 0.0, "reward_smoothness_penalty": 0.0, "reward_tracking_bonus": 0.0, "reward_alive_bonus": 0.0, "target_pattern": "", "target_speed": 0.0}
{"timesteps": 16000, "episode": 2, "episode_length": 1, "total_reward": -1.508504867553711, "terminated": false, "truncated": true, "mean_yaw_error": 1.6795760750392341, "max_yaw_error": 1.6795760750392341, "min_yaw_error": 1.6795760750392341, "std_yaw_error": 0.0, "time_on_target": 0.0, "time_close": 0.0, "mean_action": -1.0250300168991089, "std_action": 0.0, "mean_action_change": 0.0, "max_action": 1.0250300168991089, "action_reversals": 0, "mean_roll": 0.003132276403320902, "mean_pitch": -0.02735476910201213, "max_tilt": 0.027533516812989916, "mean_altitude_error": 0.00021553872697133158, "reward_facing": 0.0, "reward_error_reduction": 0.0, "reward_velocity_match": 0.0, "reward_direction_bonus": 0.0, "reward_excess_penalty": 0.0, "reward_smoothness_penalty": 0.0, "reward_tracking_bonus": 0.0, "reward_alive_bonus": 0.0, "target_pattern": "", "target_speed": 0.0}
{"timesteps": 16000, "episode": 3, "episode_length": 1, "total_reward": -1.5727232694625854, "terminated": false, "truncated": true, "mean_yaw_error": 1.8082148942709835, "max_yaw_error": 1.8082148942709835, "min_yaw_error": 1.8082148942709835, "std_yaw_error": 0.0, "time_on_target": 0.0, "time_close": 0.0, "mean_action": -0.09207700192928314, "std_action": 0.0, "mean_action_change": 0.0, "max_action": 0.09207700192928314, "action_reversals": 0, "mean_roll": 0.17974191290386782, "mean_pitch": -0.45203350759582406, "max_tilt": 0.4864580631911918, "mean_altitude_error": 0.027033411757727666, "reward_facing": 0.0, "reward_error_reduction": 0.0, "reward_velocity_match": 0.0, "reward_direction_bonus": 0.0, "reward_excess_penalty": 0.0, "reward_smoothness_penalty": 0.0, "reward_tracking_bonus": 0.0, "reward_alive_bonus": 0.0, "target_pattern": "", "target_speed": 0.0}
{"timesteps": 16000, "episode": 4, "episode_length": 1, "total_reward": -1.4988675117492676, "terminated": false, "truncated": true, "mean_yaw_error": 1.9538621414242183, "max_yaw_error": 1.9538621414242183, "min_yaw_error": 1.9538621414242183, "std_yaw_error": 0.0, "time_on_target": 0.0, "time_close": 0.0, "mean_action": -0.6262535452842712, "std_action": 0.0, "mean_action_change": 0.0, "max_action": 0.6262535452842712, "action_reversals": 0, "mean_roll": 0.03269443024606677, "mean_pitch": 0.025893393901077533, "max_tilt": 0.041706038133959504, "mean_altitude_error": 0.000722479375945495, "reward_facing": 0.0, "reward_error_reduction": 0.0, "reward_velocity_match": 0.0, "reward_direction_bonus": 0.0, "reward_excess_penalty": 0.0, "reward_smoothness_penalty": 0.0, "reward_tracking_bonus": 0.0, "reward_alive_bonus": 0.0, "target_pattern": "", "target_speed": 0.0}
{"timesteps": 16000, "episode": 5, "episode_length": 1, "total_reward": 0.15628261864185333, "terminated": false, "truncated": true, "mean_yaw_error": 0.3531776683261016, "max_yaw_error": 0.3531776683261016, "min_yaw_error": 0.3531776683261016, "std_yaw_error": 0.0, "time_on_target": 0.0, "time_close": 0.0, "mean_action": 0.36018168926239014, "std_action": 0.0, "mean_action_change": 0.0, "max_action": 0.36018168926239014, "action_reversals": 0, "mean_roll": -0.11800512504286774, "mean_pitch": 0.022667173565553422, "max_tilt": 0.12016243295570281, "mean_altitude_error": 0.0017972455476402693, "reward_facing": 0.0, "reward_error_reduction": 0.0, "reward_velocity_match": 0.0, "reward_direction_bonus": 0.0, "reward_excess_penalty": 0.0, "reward_smoothness_penalty": 0.0, "reward_tracking_bonus": 0.0, "reward_alive_bonus": 0.0, "target_pattern": "", "target_speed": 0.0}
{"timesteps": 16000, "episode": 6, "episode_length": 1, "total_reward": 1.6762346029281616, "terminated": false, "truncated": true, "mean_yaw_error": 0.016538127804332378, "max_yaw_error": 0.016538127804332378, "min_yaw_error": 0.016538127804332378, "std_yaw_error": 0.0, "time_on_target": 1.0, "time_close": 1.0, "mean_action": -0.22255839407444, "std_action": 0.0, "mean_action_change": 0.0, "max_action": 0.22255839407444, "action_reversals": 0, "mean_roll": 0.0015815689765754032, "mean_pitch": 0.011839606224551264, "max_tilt": 0.01194477442148234, "mean_altitude_error": 0.0029414666038645176, "reward_facing": 0.0, "reward_error_reduction": 0.0, "reward_velocity_match": 0.0, "reward_direction_bonus": 0.0, "reward_excess_penalty": 0.0, "reward_smoothness_penalty": 0.0, "reward_tracking_bonus": 0.0, "reward_alive_bonus": 0.0, "target_pattern": "", "target_speed": 0.0}
{"timesteps": 16000, "episode": 7, "episode_length": 1, "total_reward": 0.44852331280708313, "terminated": false, "truncated": true, "mean_yaw_error": 0.27495140697304277, "max_yaw_error": 0.27495140697304277, "min_yaw_error": 0.27495140697304277, "std_yaw_error": 0.0, "time_on_target": 0.0, "time_close": 1.0, "mean_action": 0.36243364214897156, "std_action": 0.0, "mean_action_change": 0.0, "max_action": 0.36243364214897156, "action_reversals": 0, "mean_roll": 0.021132819909311484, "mean_pitch": 0.0019754767415630548, "max_tilt": 0.021224951959329576, "mean_altitude_error": 0.0006540455074914853, "reward_facing": 0.0, "reward_error_reduction": 0.0, "reward_velocity_match": 0.0, "reward_direction_bonus": 0.0, "reward_excess_penalty": 0.0, "reward_smoothness_penalty": 0.0, "reward_tracking_bonus": 0.0, "reward_alive_bonus": 0.0, "target_pattern": "", "target_speed": 0.0}
{"timesteps": 16000, "episode": 8, "episode_length": 1, "total_reward": 0.30730801820755005, "terminated": false, "truncated": true, "mean_yaw_error": 0.3557518531013725, "max_yaw_error": 0.3557518531013725, "min_yaw_error": 0.3557518531013725, "std_yaw_error": 0.0, "time_on_target": 0.0, "time_close": 0.0, "mean_action": 0.49392467737197876, "std_action": 0.0, "mean_action_change": 0.0, "max_action": 0.49392467737197876, "action_reversals": 0, "mean_roll": 0.012732674835821068, "mean_pitch": -0.006708674511153525, "max_tilt": 0.014391918641076041, "mean_altitude_error": 0.0007769533387917971, "reward_facing": 0.0, "reward_error_reduction": 0.0, "reward_velocity_match": 0.0, "reward_direction_bonus": 0.0, "reward_excess_penalty": 0.0, "reward_smoothness_penalty": 0.0, "reward_tracking_bonus": 0.0, "reward_alive_bonus": 0.0, "target_pattern": "", "target_speed": 0.0}
{"timesteps": 26176, "episode": 9, "episode_length": 10172, "total_reward": -12927.337413563684, "terminated": true, "truncated": false, "mean_yaw_error": 1.9823779886907937, "max_yaw_error": 3.1410800083437214, "min_yaw_error": 0.3069527536799347, "std_yaw_error": 0.8038430598258226, "time_on_target": 0.0, "time_close": 0.0005898545025560362, "mean_action": -0.014032942085395773, "std_action": 0.978579186692528, "mean_action_change": 1.1087945585601782, "max_action": 4.131663799285889, "action_reversals": 5176, "mean_roll": -1.4466786950445039, "mean_pitch": 0.2067443149548606, "max_tilt": 1.4613769049980991, "mean_altitude_error": 0.05284382306389398, "reward_facing": 0.0, "reward_error_reduction": 0.0, "reward_velocity_match": 0.0, "reward_direction_bonus": 0.0, "reward_excess_penalty": 0.0, "reward_smoothness_penalty": 0.0, "reward_tracking_bonus": 0.0, "reward_alive_bonus": 0.0, "target_pattern": "", "target_speed": 0.0}
{"timesteps": 32000, "episode": 10, "episode_length": 5821, "total_reward": -6523.371582693377, "terminated": false, "truncated": true, "mean_yaw_error": 1.8633053419852437, "max_yaw_error": 3.140802123986171, "min_yaw_error": 0.0003114117464735922, "std_yaw_error": 0.9316356102427156, "time_on_target": 0.027830269713107713, "time_close": 0.09671877684246694, "mean_action": -0.03251010257220531, "std_action": 1.0039225590543408, "mean_action_change": 1.123978004361986, "max_action": 4.044516563415527, "action_reversals": 2871, "mean_roll": 0.002496373389988432, "mean_pitch": -0.005120457190958452, "max_tilt": 0.8912125142887289, "mean_altitude_error": 0.05526031048776337, "reward_facing": 0.0, "reward_error_reduction": 0.0, "reward_velocity_match": 0.0, "reward_direction_bonus": 0.0, "reward_excess_penalty": 0.0, "reward_smoothness_penalty": 0.0, "reward_tracking_bonus": 0.0, "reward_alive_bonus": 0.0, "target_pattern": "", "target_speed": 0.0}
{"timesteps": 32000, "episode": 11, "episode_length": 1, "total_reward": -1.9408296346664429, "terminated": false, "truncated": true, "mean_yaw_error": 2.855466590412021, "max_yaw_error": 2.855466590412021, "min_yaw_error": 2.855466590412021, "std_yaw_error": 0.0, "time_on_target": 0.0, "time_close": 0.0, "mean_action": 0.060387350618839264, "std_action": 0.0, "mean_action_change": 0.0, "max_action": 0.060387350618839264, "action_reversals": 0, "mean_roll": -0.019787771176115295, "mean_pitch": -0.031660889420327826, "max_tilt": 0.03733587828087784, "mean_altitude_error": 0.00034330993360898177, "reward_facing": 0.0, "reward_error_reduction": 0.0, "reward_velocity_match": 0.0, "reward_direction_bonus": 0.0, "reward_excess_penalty": 0.0, "reward_smoothness_penalty": 0.0, "reward_tracking_bonus": 0.0, "reward_alive_bonus": 0.0, "target_pattern": "", "target_speed": 0.0}
{"timesteps": 32000, "episode": 12, "episode_length": 1, "total_reward": -1.6325784921646118, "terminated": false, "truncated": true, "mean_yaw_error": 1.8922155487277288, "max_yaw_error": 1.8922155487277288, "min_yaw_error": 1.8922155487277288, "std_yaw_error": 0.0, "time_on_target": 0.0, "time_close": 0.0, "mean_action": -1.530423641204834, "std_action": 0.0, "mean_action_change": 0.0, "max_action": 1.530423641204834, "action_reversals": 0, "mean_roll": 0.2557844288349964, "mean_pitch": -0.3536700514679003, "max_tilt": 0.4364724267806073, "mean_altitude_error": 0.01691307218689364, "reward_facing": 0.0, "reward_error_reduction": 0.0, "reward_velocity_match": 0.0, "reward_direction_bonus": 0.0, "reward_excess_penalty": 0.0, "reward_smoothness_penalty": 0.0, "reward_tracking_bonus": 0.0, "reward_alive_bonus": 0.0, "target_pattern": "", "target_speed": 0.0}
{"timesteps": 32000, "episode": 13, "episode_length": 2, "total_reward": -1.674161545932293, "terminated": false, "truncated": true, "mean_yaw_error": 1.4182168067390417, "max_yaw_error": 1.9991732557218456, "min_yaw_error": 0.8372603577562377, "std_yaw_error": 0.580956448982804, "time_on_target": 0.0, "time_close": 0.0, "mean_action": 0.3116571009159088, "std_action": 0.7007522284984589, "mean_action_change": 1.4015044569969177, "max_action": 1.0124093294143677, "action_reversals": 1, "mean_roll": -0.3352761742079149, "mean_pitch": -0.27369289705082495, "max_tilt": 0.43280239704462076, "mean_altitude_error": 0.03015645184411203, "reward_facing": 0.0, "reward_error_reduction": 0.0, "reward_velocity_match": 0.0, "reward_direction_bonus": 0.0, "reward_excess_penalty": 0.0, "reward_smoothness_penalty": 0.0, "reward_tracking_bonus": 0.0, "reward_alive_bonus": 0.0, "target_pattern": "", "target_speed": 0.0}
{"timesteps": 32000, "episode": 14, "episode_length": 1, "total_reward": -0.4288319945335388, "terminated": false, "truncated": true, "mean_yaw_error": 1.2610170560289444, "max_yaw_error": 1.2610170560289444, "min_yaw_error": 1.2610170560289444, "std_yaw_error": 0.0, "time_on_target": 0.0, "time_close": 0.0, "mean_action": -0.054249249398708344, "std_action": 0.0, "mean_action_change": 0.0, "max_action": 0.054249249398708344, "action_reversals": 0, "mean_roll": 0.002582245223157405, "mean_pitch": 0.006092074221706527, "max_tilt": 0.0066167483490987035, "mean_altitude_error": 0.001571708378925285, "reward_facing": 0.0, "reward_error_reduction": 0.0, "reward_velocity_match": 0.0, "reward_direction_bonus": 0.0, "reward_excess_penalty": 0.0, "reward_smoothness_penalty": 0.0, "reward_tracking_bonus": 0.0, "reward_alive_bonus": 0.0, "target_pattern": "", "target_speed": 0.0}
{"timesteps": 32000, "episode": 15, "episode_length": 1, "total_reward": -2.002241373062134, "terminated": false, "truncated": true, "mean_yaw_error": 3.0562782033051836, "max_yaw_error": 3.0562782033051836, "min_yaw_error": 3.0562782033051836, "std_yaw_error": 0.0, "time_on_target": 0.0, "time_close": 0.0, "mean_action": 0.08002772927284241, "std_action": 0.0, "mean_action_change": 0.0, "max_action": 0.08002772927284241, "action_reversals": 0, "mean_roll": 0.00048408549192875564, "mean_pitch": 0.0010602235281074754, "max_tilt": 0.0011655096280376958, "mean_altitude_error": 0.01771284471142165, "reward_facing": 0.0, "reward_error_reduction": 0.0, "reward_velocity_match": 0.0, "reward_direction_bonus": 0.0, "reward_excess_penalty": 0.0, "reward_smoothness_penalty": 0.0, "reward_tracking_bonus": 0.0, "reward_alive_bonus": 0.0, "target_pattern": "", "target_speed": 0.0}
{"timesteps": 32000, "episode": 16, "episode_length": 1, "total_reward": -0.20029333233833313, "terminated": false, "truncated": true, "mean_yaw_error": 0.8002945930831715, "max_yaw_error": 0.8002945930831715, "min_yaw_error": 0.8002945930831715, "std_yaw_error": 0.0, "time_on_target": 0.0, "time_close": 0.0, "mean_action": -0.7550665140151978, "std_action": 0.0, "mean_action_change": 0.0, "max_action": 0.7550665140151978, "action_reversals": 0, "mean_roll": 0.10985331419780811, "mean_pitch": -0.008376937758694233, "max_tilt": 0.11017224571758255, "mean_altitude_error": 0.058948819909008576, "reward_facing": 0.0, "reward_error_reduction": 0.0, "reward_velocity_match": 0.0, "reward_direction_bonus": 0.0, "reward_excess_penalty": 0.0, "reward_smoothness_penalty": 0.0, "reward_tracking_bonus": 0.0, "reward_alive_bonus": 0.0, "target_pattern": "", "target_speed": 0.0}
{"timesteps": 42176, "episode": 17, "episode_length": 10172, "total_reward": -6360.037299216725, "terminated": false, "truncated": true, "mean_yaw_error": 1.4252579322923775, "max_yaw_error": 3.1410758003056527, "min_yaw_error": 0.00019528278888932904, "std_yaw_error": 0.9853289291335483, "time_on_target": 0.06439244986236728, "time_close": 0.18550924105387337, "mean_action": -0.05181939011359614, "std_action": 0.990077836910613, "mean_action_change": 1.117595192991702, "max_action": 3.7042651176452637, "action_reversals": 5086, "mean_roll": -0.05190361263640624, "mean_pitch": 0.03837384477451735, "max_tilt": 0.9647592282151373, "mean_altitude_error": 0.021535650285837676, "reward_facing": 0.0, "reward_error_reduction": 0.0, "reward_velocity_match": 0.0, "reward_direction_bonus": 0.0, "reward_excess_penalty": 0.0, "reward_smoothness_penalty": 0.0, "reward_tracking_bonus": 0.0, "reward_alive_bonus": 0.0, "target_pattern": "", "target_speed": 0.0}
{"timesteps": 46176, "episode": 18, "episode_length": 4001, "total_reward": -2391.492487110372, "terminated": true, "truncated": false, "mean_yaw_error": 1.3447980736502396, "max_yaw_error": 3.1403289936406473, "min_yaw_error": 0.0007015801632861106, "std_yaw_error": 0.8745336598962199, "time_on_target": 0.08922769307673081, "time_close": 0.2039490127468133, "mean_action": -0.05600224148833105, "std_action": 1.000785500399123, "mean_action_change": 1.1542006103415041, "max_action": 3.486861228942871, "action_reversals": 2035, "mean_roll": 1.382987596126039, "mean_pitch": -0.37597848009958296, "max_tilt": 1.4331833478436988, "mean_altitude_error": 0.09568523006288242, "reward_facing": 0.0, "reward_error_reduction": 0.0, "reward_velocity_match": 0.0, "reward_direction_bonus": 0.0, "reward_excess_penalty": 0.0, "reward_smoothness_penalty": 0.0, "reward_tracking_bonus": 0.0, "reward_alive_bonus": 0.0, "target_pattern": "", "target_speed": 0.0}
{"timesteps": 48000, "episode": 19, "episode_length": 1820, "total_reward": -633.4867372466251, "terminated": false, "truncated": true, "mean_yaw_error": 1.1948566211163925, "max_yaw_error": 2.668317334997324, "min_yaw_error": 0.0001374875123550287, "std_yaw_error": 0.8156289442451744, "time_on_target": 0.11703296703296703, "time_close": 0.2076923076923077, "mean_action": 0.013534398606446172, "std_action": 1.0097503302926905, "mean_action_change": 1.1551732730418403, "max_action": 4.1020097732543945, "action_reversals": 931, "mean_roll": 0.02363662413121083, "mean_pitch": 0.03675014684169108, "max_tilt": 0.8938510405025302, "mean_altitude_error": 0.07595885822619858, "reward_facing": 0.0, "reward_error_reduction": 0.0, "reward_velocity_match": 0.0, "reward_direction_bonus": 0.0, "reward_excess_penalty": 0.0, "reward_smoothness_penalty": 0.0, "reward_tracking_bonus": 0.0, "reward_alive_bonus": 0.0, "target_pattern": "", "target_speed": 0.0}
{"timesteps": 48000, "episode": 20, "episode_length": 1, "total_reward": -0.3311222493648529, "terminated": false, "truncated": true, "mean_yaw_error": 1.0482926501687633, "max_yaw_error": 1.0482926501687633, "min_yaw_error": 1.0482926501687633, "std_yaw_error": 0.0, "time_on_target": 0.0, "time_close": 0.0, "mean_action": 0.39571377635002136, "std_action": 0.0, "mean_action_change": 0.0, "max_action": 0.39571377635002136, "action_reversals": 0, "mean_roll": -0.14124263910087412, "mean_pitch": 0.0786901244799402, "max_tilt": 0.16168369983040423, "mean_altitude_error": 0.0017343703061418747, "reward_facing": 0.0, "reward_error_reduction": 0.0, "reward_velocity_match": 0.0, "reward_direction_bonus": 0.0, "reward_excess_penalty": 0.0, "reward_smoothness_penalty": 0.0, "reward_tracking_bonus": 0.0, "reward_alive_bonus": 0.0, "target_pattern": "", "target_speed": 0.0}
{"timesteps": 48000, "episode": 21, "episode_length": 1, "total_reward": -1.661966323852539, "terminated": false, "truncated": true, "mean_yaw_error": 2.173555023040603, "max_yaw_error": 2.173555023040603, "min_yaw_error": 2.173555023040603, "std_yaw_error": 0.0, "time_on_target": 0.0, "time_close": 0.0, "mean_action": 0.2791248559951782, "std_action": 0.0, "mean_action_change": 0.0, "max_action": 0.2791248559951782, "action_reversals": 0, "mean_roll": -0.3316417782059326, "mean_pitch": 0.2151122435693203, "max_tilt": 0.39529678266464496, "mean_altitude_error": 0.024789166649142214, "reward_facing": 0.0, "reward_error_reduction": 0.0, "reward_velocity_match": 0.0, "reward_direction_bonus": 0.0, "reward_excess_penalty": 0.0, "reward_smoothness_penalty": 0.0, "reward_tracking_bonus": 0.0, "reward_alive_bonus": 0.0, "target_pattern": "", "target_speed": 0.0}
{"timesteps": 48000, "episode": 22, "episode_length": 3, "total_reward": -2.2198832482099533, "terminated": false, "truncated": true, "mean_yaw_error": 1.448223467774463, "max_yaw_error": 2.668932767251803, "min_yaw_error": 0.8154311405983315, "std_yaw_error": 0.8633662199945942, "time_on_target": 0.0, "time_close": 0.0, "mean_action": -0.04644292593002319, "std_action": 0.36360349038154355, "mean_action_change": 0.7672609984874725, "max_action": 0.4650644063949585, "action_reversals": 2, "mean_roll": -9.920784355286791e-05, "mean_pitch": -0.03019437660257822, "max_tilt": 0.1848543529268388, "mean_altitude_error": 0.003144267427369063, "reward_facing": 0.0, "reward_error_reduction": 0.0, "reward_velocity_match": 0.0, "reward_direction_bonus": 0.0, "reward_excess_penalty": 0.0, "reward_smoothness_penalty": 0.0, "reward_tracking_bonus": 0.0, "reward_alive_bonus": 0.0, "target_pattern": "", "target_speed": 0.0}
{"timesteps": 48000, "episode": 23, "episode_length": 1, "total_reward": 0.45705047249794006, "terminated": false, "truncated": true, "mean_yaw_error": 0.3519447054475969, "max_yaw_error": 0.3519447054475969, "min_yaw_error": 0.3519447054475969, "std_yaw_error": 0.0, "time_on_target": 0.0, "time_close": 0.0, "mean_action": 1.0245473384857178, "std_action": 0.0, "mean_action_change": 0.0, "max_action": 1.0245473384857178, "action_reversals": 0, "mean_roll": -0.059305475374945724, "mean_pitch": 0.33302851147456963, "max_tilt": 0.3382678359886081, "mean_altitude_error": 0.21069522159886278, "reward_facing": 0.0, "reward_error_reduction": 0.0, "reward_velocity_match": 0.0, "reward_direction_bonus": 0.0, "reward_excess_penalty": 0.0, "reward_smoothness_penalty": 0.0, "reward_tracking_bonus": 0.0, "reward_alive_bonus": 0.0, "target_pattern": "", "target_speed": 0.0}
{"timesteps": 48000, "episode": 24, "episode_length": 1, "total_reward": 1.8284971714019775, "terminated": false, "truncated": true, "mean_yaw_error": 0.03377210614659281, "max_yaw_error": 0.03377210614659281, "min_yaw_error": 0.03377210614659281, "std_yaw_error": 0.0, "time_on_target": 1.0, "time_close": 1.0, "mean_action": 0.3981759250164032, "std_action": 0.0, "mean_action_change": 0.0, "max_action": 0.3981759250164032, "action_reversals": 0, "mean_roll": -0.0025380957498814024, "mean_pitch": -0.004714586594800318, "max_tilt": 0.005354368010833482, "mean_altitude_error": 0.04307141326895092, "reward_facing": 0.0, "reward_error_reduction": 0.0, "reward_velocity_match": 0.0, "reward_direction_bonus": 0.0, "reward_excess_penalty": 0.0, "reward_smoothness_penalty": 0.0, "reward_tracking_bonus": 0.0, "reward_alive_bonus": 0.0, "target_pattern": "", "target_speed": 0.0}
{"timesteps": 50776, "episode": 25, "episode_length": 2774, "total_reward": -2129.0083300342667, "terminated": true, "truncated": false, "mean_yaw_error": 1.4121040031256875, "max_yaw_error": 2.723770030754936, "min_yaw_error": 0.00034913283418288823, "std_yaw_error": 0.7787692697520341, "time_on_target": 0.06416726748377793, "time_close": 0.1236481614996395, "mean_action": 0.06490925083663072, "std_action": 0.9943224513252594, "mean_action_change": 1.1122922344211177, "max_action": 3.530714273452759, "action_reversals": 1384, "mean_roll": -1.3578597601651101, "mean_pitch": 0.5310435990745576, "max_tilt": 1.4580090645787185, "mean_altitude_error": 0.11642488317338356, "reward_facing": 0.0, "reward_error_reduction": 0.0, "reward_velocity_match": 0.0, "reward_direction_bonus": 0.0, "reward_excess_penalty": 0.0, "reward_smoothness_penalty": 0.0, "reward_tracking_bonus": 0.0, "reward_alive_bonus": 0.0, "target_pattern": "", "target_speed": 0.0}
{"timesteps": 52704, "episode": 26, "episode_length": 1926, "total_reward": -1929.054763407621, "terminated": true, "truncated": false, "mean_yaw_error": 1.6002902619461197, "max_yaw_error": 3.141448951754426, "min_yaw_error": 0.30654897307824114, "std_yaw_error": 0.8117659045464648, "time_on_target": 0.0, "time_close": 0.010384215991692628, "mean_action": 0.06938336751117204, "std_action": 1.0147495555764856, "mean_action_change": 1.1526503381016966, "max_action": 4.257174015045166, "action_reversals": 957, "mean_roll": -1.0885587178705927, "mean_pitch": -0.9931204288086043, "max_tilt": 1.4735156152443905, "mean_altitude_error": 0.09901044776940411, "reward_facing": 0.0, "reward_error_reduction": 0.0, "reward_velocity_match": 0.0, "reward_direction_bonus": 0.0, "reward_excess_penalty": 0.0, "reward_smoothness_penalty": 0.0, "reward_tracking_bonus": 0.0, "reward_alive_bonus": 0.0, "target_pattern": "", "target_speed": 0.0}
{"timesteps": 53432, "episode": 27, "episode_length": 731, "total_reward": -629.7059274845524, "terminated": true, "truncated": false, "mean_yaw_error": 1.4317803967407938, "max_yaw_error": 3.1413996989945656, "min_yaw_error": 0.008729650096728277, "std_yaw_error": 0.9007748260544405, "time_on_target": 0.009575923392612859, "time_close": 0.1326949384404925, "mean_action": 0.026970183772382757, "std_action": 1.020404632733148, "mean_action_change": 1.1546350083887986, "max_action": 3.475109815597534, "action_reversals": 372, "mean_roll": 1.263845878552222, "mean_pitch": 0.7066524870650179, "max_tilt": 1.4479862368850793, "mean_altitude_error": 0.06205321465481956, "reward_facing": 0.0, "reward_error_reduction": 0.0, "reward_velocity_match": 0.0, "reward_direction_bonus": 0.0, "reward_excess_penalty": 0.0, "reward_smoothness_penalty": 0.0, "reward_tracking_bonus": 0.0, "reward_alive_bonus": 0.0, "target_pattern": "", "target_speed": 0.0}
{"timesteps": 62176, "episode": 28, "episode_length": 8742, "total_reward": -3484.0955349497053, "terminated": false, "truncated": true, "mean_yaw_error": 1.1121835597389267, "max_yaw_error": 3.116098736558067, "min_yaw_error": 2.0271822339602114e-05, "std_yaw_error": 0.765621965834598, "time_on_target": 0.043697094486387554, "time_close": 0.12788835506749027, "mean_action": 0.042824311372446085, "std_action": 1.0113122324013126, "mean_action_change": 1.1331614464613144, "max_action": 3.960984468460083, "action_reversals": 4313, "mean_roll": 0.06022837910798736, "mean_pitch": 0.006101871840600581, "max_tilt": 0.8543838543896983, "mean_altitude_error": 0.02243597660216701, "reward_facing": 0.0, "reward_error_reduction": 0.0, "reward_velocity_match": 0.0, "reward_direction_bonus": 0.0, "reward_excess_penalty": 0.0, "reward_smoothness_penalty": 0.0, "reward_tracking_bonus": 0.0, "reward_alive_bonus": 0.0, "target_pattern": "", "target_speed": 0.0}
{"timesteps": 64000, "episode": 29, "episode_length": 1820, "total_reward": -482.8672200436704, "terminated": false, "truncated": true, "mean_yaw_error": 1.032341335221822, "max_yaw_error": 3.137156873150661, "min_yaw_error": 0.00022648462853051338, "std_yaw_error": 0.7900869027156938, "time_on_target": 0.01978021978021978, "time_close": 0.1043956043956044, "mean_action": 0.04033209939671496, "std_action": 0.9850249927780811, "mean_action_change": 1.1101999816255887, "max_action": 3.9201574325561523, "action_reversals": 889, "mean_roll": 0.005777298742320956, "mean_pitch": -0.011398056122141785, "max_tilt": 1.0436163613177196, "mean_altitude_error": 0.06143201716911393, "reward_facing": 0.0, "reward_error_reduction": 0.0, "reward_velocity_match": 0.0, "reward_direction_bonus": 0.0, "reward_excess_penalty": 0.0, "reward_smoothness_penalty": 0.0, "reward_tracking_bonus": 0.0, "reward_alive_bonus": 0.0, "target_pattern": "", "target_speed": 0.0}
{"timesteps": 64000, "episode": 30, "episode_length": 1, "total_reward": -1.9774187803268433, "terminated": false, "truncated": true, "mean_yaw_error": 2.8457812213642026, "max_yaw_error": 2.8457812213642026, "min_yaw_error": 2.8457812213642026, "std_yaw_error": 0.0, "time_on_target": 0.0, "time_close": 0.0, "mean_action": 0.8740413188934326, "std_action": 0.0, "mean_action_change": 0.0, "max_action": 0.8740413188934326, "action_reversals": 0, "mean_roll": 0.22514947535195484, "mean_pitch": 0.11805036588514377, "max_tilt": 0.2542207212972161, "mean_altitude_error": 0.03975354537464071, "reward_facing": 0.0, "reward_error_reduction": 0.0, "reward_velocity_match": 0.0, "reward_direction_bonus": 0.0, "reward_excess_penalty": 0.0, "reward_smoothness_penalty": 0.0, "reward_tracking_bonus": 0.0, "reward_alive_bonus": 0.0, "target_pattern": "", "target_speed": 0.0}
{"timesteps": 64000, "episode": 31, "episode_length": 1, "total_reward": -0.969840407371521, "terminated": false, "truncated": true, "mean_yaw_error": 1.540940091161226, "max_yaw_error": 1.540940091161226, "min_yaw_error": 1.540940091161226, "std_yaw_error": 0.0, "time_on_target": 0.0, "time_close": 0.0, "mean_action": 1.2557696104049683, "std_action": 0.0, "mean_action_change": 0.0, "max_action": 1.2557696104049683, "action_reversals": 0, "mean_roll": 0.2133090641870927, "mean_pitch": -0.5318093804249782, "max_tilt": 0.57299386905304, "mean_altitude_error": 0.07295189764278331, "reward_facing": 0.0, "reward_error_reduction": 0.0, "reward_velocity_match": 0.0, "reward_direction_bonus": 0.0, "reward_excess_penalty": 0.0, "reward_smoothness_penalty": 0.0, "reward_tracking_bonus": 0.0, "reward_alive_bonus": 0.0, "target_pattern": "", "target_speed": 0.0}
{"timesteps": 64000, "episode": 32, "episode_length": 5, "total_reward": 0.6052730083465576, "terminated": false, "truncated": true, "mean_yaw_error": 0.6738067783294976, "max_yaw_error": 1.3663869495235426, "min_yaw_error": 0.29795917556027995, "std_yaw_error": 0.39569125806581157, "time_on_target": 0.0, "time_close": 0.4, "mean_action": -0.20886587500572204, "std_action": 0.728939389171019, "mean_action_change": 1.2057556957006454, "max_action": 1.0671623945236206, "action_reversals": 3, "mean_roll": -0.013471681785062573, "mean_pitch": 0.006966964204851705, "max_tilt": 0.1975155522830158, "mean_altitude_error": 0.004886391306526417, "reward_facing": 0.0, "reward_error_reduction": 0.0, "reward_velocity_match": 0.0, "reward_direction_bonus": 0.0, "reward_excess_penalty": 0.0, "reward_smoothness_penalty": 0.0, "reward_tracking_bonus": 0.0, "reward_alive_bonus": 0.0, "target_pattern": "", "target_speed": 0.0}
{"timesteps": 66776, "episode": 33, "episode_length": 2774, "total_reward": -532.7355591552623, "terminated": false, "truncated": true, "mean_yaw_error": 0.9168268527350548, "max_yaw_error": 2.3267728847064797, "min_yaw_error": 0.0009744185740919594, "std_yaw_error": 0.5958215961361588, "time_on_target": 0.04397981254506128, "time_close": 0.1802451333813987, "mean_action": -0.01794767221664203, "std_action": 1.0245498789240626, "mean_action_change": 1.1285169409884201, "max_action": 3.7428526878356934, "action_reversals": 1317, "mean_roll": 0.2690611966233445, "mean_pitch": 0.4906485010016529, "max_tilt": 0.7939140723826291, "mean_altitude_error": 0.013622326567904006, "reward_facing": 0.0, "reward_error_reduction": 0.0, "reward_velocity_match": 0.0, "reward_direction_bonus": 0.0, "reward_excess_penalty": 0.0, "reward_smoothness_penalty": 0.0, "reward_tracking_bonus": 0.0, "reward_alive_bonus": 0.0, "target_pattern": "", "target_speed": 0.0}
{"timesteps": 68704, "episode": 34, "episode_length": 1926, "total_reward": 429.8798552324879, "terminated": false, "truncated": true, "mean_yaw_error": 0.6251000244222333, "max_yaw_error": 1.6166574732654506, "min_yaw_error": 6.401791855180208e-05, "std_yaw_error": 0.4884012304503793, "time_on_target": 0.14330218068535824, "time_close": 0.3857736240913811, "mean_action": -0.07799474537945116, "std_action": 1.0279596780958726, "mean_action_change": 1.1682482562397982, "max_action": 3.2253870964050293, "action_reversals": 965, "mean_roll": 0.008763098017094746, "mean_pitch": 0.009551948360213258, "max_tilt": 1.2764580307640174, "mean_altitude_error": 0.051912482332123144, "reward_facing": 0.0, "reward_error_reduction": 0.0, "reward_velocity_match": 0.0, "reward_direction_bonus": 0.0, "reward_excess_penalty": 0.0, "reward_smoothness_penalty": 0.0, "reward_tracking_bonus": 0.0, "reward_alive_bonus": 0.0, "target_pattern": "", "target_speed": 0.0}
{"timesteps": 69432, "episode": 35, "episode_length": 731, "total_reward": -110.24137694574893, "terminated": false, "truncated": true, "mean_yaw_error": 0.9386614145945205, "max_yaw_error": 3.033351401064726, "min_yaw_error": 0.10138470524609686, "std_yaw_error": 0.9206924636566044, "time_on_target": 0.0, "time_close": 0.3652530779753762, "mean_action": 0.02121968987804268, "std_action": 1.044824274863556, "mean_action_change": 1.1934884071350098, "max_action": 3.4555678367614746, "action_reversals": 351, "mean_roll": 0.08125621230282196, "mean_pitch": -0.01231360796692667, "max_tilt": 0.9837057745741568, "mean_altitude_error": 0.06308030231716602, "reward_facing": 0.0, "reward_error_reduction": 0.0, "reward_velocity_match": 0.0, "reward_direction_bonus": 0.0, "reward_excess_penalty": 0.0, "reward_smoothness_penalty": 0.0, "reward_tracking_bonus": 0.0, "reward_alive_bonus": 0.0, "target_pattern": "", "target_speed": 0.0}
{"timesteps": 70728, "episode": 36, "episode_length": 1295, "total_reward": -403.51891192673065, "terminated": true, "truncated": false, "mean_yaw_error": 1.1369524962036037, "max_yaw_error": 3.1259839100542757, "min_yaw_error": 0.0003791302383274197, "std_yaw_error": 1.0075234347039868, "time_on_target": 0.13667953667953667, "time_close": 0.3745173745173745, "mean_action": 0.04915343131366614, "std_action": 1.0105091628490637, "mean_action_change": 1.1196172568901015, "max_action": 3.572868585586548, "action_reversals": 623, "mean_roll": -1.3950079429645048, "mean_pitch": 0.48758120310323894, "max_tilt": 1.477762697645891, "mean_altitude_error": 0.1654999522547711, "reward_facing": 0.0, "reward_error_reduction": 0.0, "reward_velocity_match": 0.0, "reward_direction_bonus": 0.0, "reward_excess_penalty": 0.0, "reward_smoothness_penalty": 0.0, "reward_tracking_bonus": 0.0, "reward_alive_bonus": 0.0, "target_pattern": "", "target_speed": 0.0}
{"timesteps": 70752, "episode": 37, "episode_length": 23, "total_reward": -49.57019583135843, "terminated": true, "truncated": false, "mean_yaw_error": 1.0664412938389172, "max_yaw_error": 3.084781544868222, "min_yaw_error": 0.02754282085934002, "std_yaw_error": 1.1158535527889004, "time_on_target": 0.2608695652173913, "time_close": 0.391304347826087, "mean_action": 0.06133201378195182, "std_action": 0.7795956738421324, "mean_action_change": 0.9541228901256215, "max_action": 1.885695457458496, "action_reversals": 11, "mean_roll": -1.4524346777842174, "mean_pitch": -0.024442918566644975, "max_tilt": 1.452640337281806, "mean_altitude_error": 0.016631685526187066, "reward_facing": 0.0, "reward_error_reduction": 0.0, "reward_velocity_match": 0.0, "reward_direction_bonus": 0.0, "reward_excess_penalty": 0.0, "reward_smoothness_penalty": 0.0, "reward_tracking_bonus": 0.0, "reward_alive_bonus": 0.0, "target_pattern": "", "target_speed": 0.0}
{"timesteps": 80000, "episode": 38, "episode_length": 9244, "total_reward": -1043.0662293950663, "terminated": false, "truncated": true, "mean_yaw_error": 0.9830957280063102, "max_yaw_error": 3.141349071173435, "min_yaw_error": 9.199818366043245e-05, "std_yaw_error": 0.9238514194219621, "time_on_target": 0.10861099091302466, "time_close": 0.3388143660752921, "mean_action": -0.005903950102920658, "std_action": 1.003867374838286, "mean_action_change": 1.146287109175449, "max_action": 4.153205394744873, "action_reversals": 4656, "mean_roll": 0.03570854014793556, "mean_pitch": 0.003326445542032222, "max_tilt": 0.8816640758199498, "mean_altitude_error": 0.05735670509723417, "reward_facing": 0.0, "reward_error_reduction": 0.0, "reward_velocity_match": 0.0, "reward_direction_bonus": 0.0, "reward_excess_penalty": 0.0, "reward_smoothness_penalty": 0.0, "reward_tracking_bonus": 0.0, "reward_alive_bonus": 0.0, "target_pattern": "", "target_speed": 0.0}
{"timesteps": 80000, "episode": 39, "episode_length": 1, "total_reward": 0.10674777626991272, "terminated": false, "truncated": true, "mean_yaw_error": 0.4406339519359916, "max_yaw_error": 0.4406339519359916, "min_yaw_error": 0.4406339519359916, "std_yaw_error": 0.0, "time_on_target": 0.0, "time_close": 0.0, "mean_action": 1.7146254777908325, "std_action": 0.0, "mean_action_change": 0.0, "max_action": 1.7146254777908325, "action_reversals": 0, "mean_roll": -0.0056220823518643, "mean_pitch": 0.0009413878688226722, "max_tilt": 0.005700352716342254, "mean_altitude_error": 0.0005103619472377474, "reward_facing": 0.0, "reward_error_reduction": 0.0, "reward_velocity_match": 0.0, "reward_direction_bonus": 0.0, "reward_excess_penalty": 0.0, "reward_smoothness_penalty": 0.0, "reward_tracking_bonus": 0.0, "reward_alive_bonus": 0.0, "target_pattern": "", "target_speed": 0.0}
{"timesteps": 80000, "episode": 40, "episode_length": 1, "total_reward": 0.14402540028095245, "terminated": false, "truncated": true, "mean_yaw_error": 0.5334421497005102, "max_yaw_error": 0.5334421497005102, "min_yaw_error": 0.5334421497005102, "std_yaw_error": 0.0, "time_on_target": 0.0, "time_close": 0.0, "mean_action": 1.343746542930603, "std_action": 0.0, "mean_action_change": 0.0, "max_action": 1.343746542930603, "action_reversals": 0, "mean_roll": -0.032333635323182244, "mean_pitch": -0.14234884967718184, "max_tilt": 0.1459748573475222, "mean_altitude_error": 0.03451747662790505, "reward_facing": 0.0, "reward_error_reduction": 0.0, "reward_velocity_match": 0.0, "reward_direction_bonus": 0.0, "reward_excess_penalty": 0.0, "reward_smoothness_penalty": 0.0, "reward_tracking_bonus": 0.0, "reward_alive_bonus": 0.0, "target_pattern": "", "target_speed": 0.0}
{"timesteps": 80000, "episode": 41, "episode_length": 5, "total_reward": -2.1191812455654144, "terminated": false, "truncated": true, "mean_yaw_error": 1.2035154035736644, "max_yaw_error": 2.5515787548717426, "min_yaw_error": 0.15158776477542563, "std_yaw_error": 0.9293096450560057, "time_on_target": 0.0, "time_close": 0.4, "mean_action": -0.18769946098327636, "std_action": 1.4384296226808415, "mean_action_change": 1.6138519942760468, "max_action": 2.1066253185272217, "action_reversals": 2, "mean_roll": 0.13047424532316887, "mean_pitch": -0.22209797969748457, "max_tilt": 0.6147522624693679, "mean_altitude_error": 0.20394731226291948, "reward_facing": 0.0, "reward_error_reduction": 0.0, "reward_velocity_match": 0.0, "reward_direction_bonus": 0.0, "reward_excess_penalty": 0.0, "reward_smoothness_penalty": 0.0, "reward_tracking_bonus": 0.0, "reward_alive_bonus": 0.0, "target_pattern": "", "target_speed": 0.0}
{"timesteps": 84704, "episode": 42, "episode_length": 4700, "total_reward": -2941.543835423654, "terminated": false, "truncated": true, "mean_yaw_error": 1.3307223228023422, "max_yaw_error": 3.005584860612772, "min_yaw_error": 0.08866661522653745, "std_yaw_error": 1.025683472154462, "time_on_target": 0.004468085106382979, "time_close": 0.34404255319148935, "mean_action": 0.010748766198001327, "std_action": 1.0127647805812265, "mean_action_change": 1.1561005540992046, "max_action": 4.347201347351074, "action_reversals": 2373, "mean_roll": -0.25440390558613907, "mean_pitch": -0.2204811976622424, "max_tilt": 0.973752513947889, "mean_altitude_error": 0.09447104157911959, "reward_facing": 0.0, "reward_error_reduction": 0.0, "reward_velocity_match": 0.0, "reward_direction_bonus": 0.0, "reward_excess_penalty": 0.0, "reward_smoothness_penalty": 0.0, "reward_tracking_bonus": 0.0, "reward_alive_bonus": 0.0, "target_pattern": "", "target_speed": 0.0}
{"timesteps": 85432, "episode": 43, "episode_length": 731, "total_reward": -307.0524352500215, "terminated": false, "truncated": true, "mean_yaw_error": 1.1038249427291371, "max_yaw_error": 3.1404173429686617, "min_yaw_error": 0.036179869424650755, "std_yaw_error": 1.0344919225690588, "time_on_target": 0.06703146374829001, "time_close": 0.34610123119015046, "mean_action": 0.005206092237526737, "std_action": 1.0238811985940204, "mean_action_change": 1.1644621083487388, "max_action": 3.4718008041381836, "action_reversals": 368, "mean_roll": -0.21897302077027372, "mean_pitch": -0.14388942798759552, "max_tilt": 0.865686345642315, "mean_altitude_error": 0.05427400673972552, "reward_facing": 0.0, "reward_error_reduction": 0.0, "reward_velocity_match": 0.0, "reward_direction_bonus": 0.0, "reward_excess_penalty": 0.0, "reward_smoothness_penalty": 0.0, "reward_tracking_bonus": 0.0, "reward_alive_bonus": 0.0, "target_pattern": "", "target_speed": 0.0}
{"timesteps": 86728, "episode": 44, "episode_length": 1295, "total_reward": -429.7919493317604, "terminated": false, "truncated": true, "mean_yaw_error": 1.1629055451599555, "max_yaw_error": 3.1404106463603196, "min_yaw_error": 0.0007817025324943208, "std_yaw_error": 1.0807918614940017, "time_on_target": 0.16833976833976835, "time_close": 0.5034749034749034, "mean_action": 0.009214076658703645, "std_action": 1.0487880413199193, "mean_action_change": 1.1724122537464088, "max_action": 3.254286050796509, "action_reversals": 631, "mean_roll": -0.2793238153185999, "mean_pitch": -0.2631100439143526, "max_tilt": 1.0840979071111307, "mean_altitude_error": 0.19648755906022042, "reward_facing": 0.0, "reward_error_reduction": 0.0, "reward_velocity_match": 0.0, "reward_direction_bonus": 0.0, "reward_excess_penalty": 0.0, "reward_smoothness_penalty": 0.0, "reward_tracking_bonus": 0.0, "reward_alive_bonus": 0.0, "target_pattern": "", "target_speed": 0.0}
{"timesteps": 86752, "episode": 45, "episode_length": 23, "total_reward": -2.094208888709545, "terminated": false, "truncated": true, "mean_yaw_error": 0.8809081581197904, "max_yaw_error": 3.1142210269511352, "min_yaw_error": 0.07411053338466742, "std_yaw_error": 0.9997586827008922, "time_on_target": 0.08695652173913043, "time_close": 0.5217391304347826, "mean_action": -0.1224940973131553, "std_action": 1.0739526284586585, "mean_action_change": 1.2450221993706443, "max_action": 2.5384984016418457, "action_reversals": 12, "mean_roll": 0.016933526539038724, "mean_pitch": 0.26751403175360233, "max_tilt": 0.7051132502175181, "mean_altitude_error": 0.228050385873951, "reward_facing": 0.0, "reward_error_reduction": 0.0, "reward_velocity_match": 0.0, "reward_direction_bonus": 0.0, "reward_excess_penalty": 0.0, "reward_smoothness_penalty": 0.0, "reward_tracking_bonus": 0.0, "reward_alive_bonus": 0.0, "target_pattern": "", "target_speed": 0.0}
{"timesteps": 86832, "episode": 46, "episode_length": 77, "total_reward": -23.525904931128025, "terminated": true, "truncated": false, "mean_yaw_error": 0.529306634949041, "max_yaw_error": 1.6961755161189334, "min_yaw_error": 0.0073694850178265235, "std_yaw_error": 0.5362455069975773, "time_on_target": 0.11688311688311688, "time_close": 0.6103896103896104, "mean_action": 0.02916150665902472, "std_action": 1.1087362291730414, "mean_action_change": 1.283760840171262, "max_action": 2.731250762939453, "action_reversals": 38, "mean_roll": -1.4648765643976336, "mean_pitch": -0.09353522923104886, "max_tilt": 1.4678597303655139, "mean_altitude_error": 0.11147973629802112, "reward_facing": 0.0, "reward_error_reduction": 0.0, "reward_velocity_match": 0.0, "reward_direction_bonus": 0.0, "reward_excess_penalty": 0.0, "reward_smoothness_penalty": 0.0, "reward_tracking_bonus": 0.0, "reward_alive_bonus": 0.0, "target_pattern": "", "target_speed": 0.0}
{"timesteps": 89880, "episode": 47, "episode_length": 3054, "total_reward": -781.025316248762, "terminated": true, "truncated": false, "mean_yaw_error": 0.999957633331219, "max_yaw_error": 3.133177333315747, "min_yaw_error": 0.00011661748671799436, "std_yaw_error": 0.9282136097440028, "time_on_target": 0.07432874918140144, "time_close": 0.3795022920759659, "mean_action": 0.001626690035135764, "std_action": 1.022653725537456, "mean_action_change": 1.1386904440468797, "max_action": 3.7912869453430176, "action_reversals": 1502, "mean_roll": 0.6944603720181147, "mean_pitch": 1.3079405377286524, "max_tilt": 1.480872600373663, "mean_altitude_error": 0.09993316814676423, "reward_facing": 0.0, "reward_error_reduction": 0.0, "reward_velocity_match": 0.0, "reward_direction_bonus": 0.0, "reward_excess_penalty": 0.0, "reward_smoothness_penalty": 0.0, "reward_tracking_bonus": 0.0, "reward_alive_bonus": 0.0, "target_pattern": "", "target_speed": 0.0}
{"timesteps": 93088, "episode": 48, "episode_length": 3204, "total_reward": -1979.4394381427846, "terminated": true, "truncated": false, "mean_yaw_error": 1.3946296298622847, "max_yaw_error": 3.1409428408385742, "min_yaw_error": 0.00013958405372860977, "std_yaw_error": 1.0765913894107477, "time_on_target": 0.10299625468164794, "time_close": 0.3030586766541823, "mean_action": -0.0032883352662097156, "std_action": 1.0390335091275764, "mean_action_change": 1.1698654215610458, "max_action": 3.360452890396118, "action_reversals": 1573, "mean_roll": 1.4182177598846464, "mean_pitch": -0.024755205314459783, "max_tilt": 1.4184337963551155, "mean_altitude_error": 0.08305844355143173, "reward_facing": 0.0, "reward_error_reduction": 0.0, "reward_velocity_match": 0.0, "reward_direction_bonus": 0.0, "reward_excess_penalty": 0.0, "reward_smoothness_penalty": 0.0, "reward_tracking_bonus": 0.0, "reward_alive_bonus": 0.0, "target_pattern": "", "target_speed": 0.0}
{"timesteps": 96000, "episode": 49, "episode_length": 2909, "total_reward": -2173.1942716592457, "terminated": false, "truncated": true, "mean_yaw_error": 1.4891970646272101, "max_yaw_error": 3.1300680745039537, "min_yaw_error": 0.00868718944666349, "std_yaw_error": 0.9843102223751168, "time_on_target": 0.072533516672396, "time_close": 0.21313166036438638, "mean_action": -0.005532781863389822, "std_action": 1.0076283017197591, "mean_action_change": 1.1306450044661964, "max_action": 4.362227916717529, "action_reversals": 1430, "mean_roll": -0.061717237891073785, "mean_pitch": 0.04261396649078078, "max_tilt": 1.3463475043934325, "mean_altitude_error": 0.11836783184668427, "reward_facing": 0.0, "reward_error_reduction": 0.0, "reward_velocity_match": 0.0, "reward_direction_bonus": 0.0, "reward_excess_penalty": 0.0, "reward_smoothness_penalty": 0.0, "reward_tracking_bonus": 0.0, "reward_alive_bonus": 0.0, "target_pattern": "", "target_speed": 0.0}
{"timesteps": 96000, "episode": 50, "episode_length": 2, "total_reward": -0.5554428994655609, "terminated": false, "truncated": true, "mean_yaw_error": 0.8111016843444149, "max_yaw_error": 1.0078557771184642, "min_yaw_error": 0.6143475915703656, "std_yaw_error": 0.19675409277404932, "time_on_target": 0.0, "time_close": 0.0, "mean_action": -0.25476787984371185, "std_action": 0.5631991177797318, "mean_action_change": 1.1263982355594635, "max_action": 0.8179669976234436, "action_reversals": 1, "mean_roll": -0.005247180644949412, "mean_pitch": 0.016755397044346605, "max_tilt": 0.8681568632133797, "mean_altitude_error": 0.026532188620422226, "reward_facing": 0.0, "reward_error_reduction": 0.0, "reward_velocity_match": 0.0, "reward_direction_bonus": 0.0, "reward_excess_penalty": 0.0, "reward_smoothness_penalty": 0.0, "reward_tracking_bonus": 0.0, "reward_alive_bonus": 0.0, "target_pattern": "", "target_speed": 0.0}
{"timesteps": 96000, "episode": 51, "episode_length": 2, "total_reward": -55.3229501247406, "terminated": true, "truncated": false, "mean_yaw_error": 1.573043780906235, "max_yaw_error": 2.803448121301874, "min_yaw_error": 0.34263944051059597, "std_yaw_error": 1.230404340395639, "time_on_target": 0.0, "time_close": 0.5, "mean_action": 0.781321793794632, "std_action": 1.2801468074321747, "mean_action_change": 2.5602936148643494, "max_action": 2.0614686012268066, "action_reversals": 1, "mean_roll": -1.0077010885947304, "mean_pitch": 0.9885753872818239, "max_tilt": 1.411645415922289, "mean_altitude_error": 0.3813758492995844, "reward_facing": 0.0, "reward_error_reduction": 0.0, "reward_velocity_match": 0.0, "reward_direction_bonus": 0.0, "reward_excess_penalty": 0.0, "reward_smoothness_penalty": 0.0, "reward_tracking_bonus": 0.0, "reward_alive_bonus": 0.0, "target_pattern": "", "target_speed": 0.0}
{"timesteps": 97008, "episode": 52, "episode_length": 1005, "total_reward": -999.1602330002934, "terminated": true, "truncated": false, "mean_yaw_error": 1.6225857030485504, "max_yaw_error": 2.802501291928579, "min_yaw_error": 0.0014967045352313254, "std_yaw_error": 0.9246249380139455, "time_on_target": 0.01890547263681592, "time_close": 0.031840796019900496, "mean_action": 0.00443295726265332, "std_action": 1.0211159356091521, "mean_action_change": 1.1715317003454908, "max_action": 3.279040575027466, "action_reversals": 509, "mean_roll": -1.2810228176174792, "mean_pitch": -0.7169647498572541, "max_tilt": 1.4680115502932871, "mean_altitude_error": 0.15206432205374182, "reward_facing": 0.0, "reward_error_reduction": 0.0, "reward_velocity_match": 0.0, "reward_direction_bonus": 0.0, "reward_excess_penalty": 0.0, "reward_smoothness_penalty": 0.0, "reward_tracking_bonus": 0.0, "reward_alive_bonus": 0.0, "target_pattern": "", "target_speed": 0.0}
{"timesteps": 101432, "episode": 53, "episode_length": 4429, "total_reward": -1665.320545675815, "terminated": false, "truncated": true, "mean_yaw_error": 1.2353085107675388, "max_yaw_error": 3.141276304218422, "min_yaw_error": 0.00021919157503149734, "std_yaw_error": 1.114439264105415, "time_on_target": 0.09347482501693384, "time_close": 0.4624068638518853, "mean_action": -0.005769520985279262, "std_action": 1.0303648677337092, "mean_action_change": 1.158251107997844, "max_action": 3.972067356109619, "action_reversals": 2204, "mean_roll": -0.015662545815532926, "mean_pitch": 0.007020422003103401, "max_tilt": 1.2988385758998169, "mean_altitude_error": 0.06838877734518224, "reward_facing": 0.0, "reward_error_reduction": 0.0, "reward_velocity_match": 0.0, "reward_direction_bonus": 0.0, "reward_excess_penalty": 0.0, "reward_smoothness_penalty": 0.0, "reward_tracking_bonus": 0.0, "reward_alive_bonus": 0.0, "target_pattern": "", "target_speed": 0.0}
{"timesteps": 102728, "episode": 54, "episode_length": 1295, "total_reward": 419.5559315648861, "terminated": false, "truncated": true, "mean_yaw_error": 0.803605356414158, "max_yaw_error": 3.0978250586650447, "min_yaw_error": 4.4374456724801776e-05, "std_yaw_error": 1.0603859671387115, "time_on_target": 0.29884169884169887, "time_close": 0.6247104247104247, "mean_action": 0.05362352750364792, "std_action": 1.0377511672437347, "mean_action_change": 1.1792735429217973, "max_action": 3.4959778785705566, "action_reversals": 648, "mean_roll": -0.0388280646758903, "mean_pitch": -0.054587987802917466, "max_tilt": 0.7394346178128423, "mean_altitude_error": 0.032292754767320964, "reward_facing": 0.0, "reward_error_reduction": 0.0, "reward_velocity_match": 0.0, "reward_direction_bonus": 0.0, "reward_excess_penalty": 0.0, "reward_smoothness_penalty": 0.0, "reward_tracking_bonus": 0.0, "reward_alive_bonus": 0.0, "target_pattern": "", "target_speed": 0.0}
{"timesteps": 105880, "episode": 55, "episode_length": 3154, "total_reward": 1661.7685227931943, "terminated": false, "truncated": true, "mean_yaw_error": 0.5259963174318941, "max_yaw_error": 3.140509997738888, "min_yaw_error": 2.760581184983078e-06, "std_yaw_error": 0.7468227891430496, "time_on_target": 0.2679137603043754, "time_close": 0.7003804692454026, "mean_action": 0.09633192701587664, "std_action": 1.0611113219851462, "mean_action_change": 1.206402478228027, "max_action": 3.7390244007110596, "action_reversals": 1583, "mean_roll": -0.0017423265287400483, "mean_pitch": 0.004127045736566221, "max_tilt": 0.8398638210025974, "mean_altitude_error": 0.04790438569796104, "reward_facing": 0.0, "reward_error_reduction": 0.0, "reward_velocity_match": 0.0, "reward_direction_bonus": 0.0, "reward_excess_penalty": 0.0, "reward_smoothness_penalty": 0.0, "reward_tracking_bonus": 0.0, "reward_alive_bonus": 0.0, "target_pattern": "", "target_speed": 0.0}
{"timesteps": 109088, "episode": 56, "episode_length": 3204, "total_reward": 515.9273368905706, "terminated": false, "truncated": true, "mean_yaw_error": 0.8094296401384983, "max_yaw_error": 3.140995132829803, "min_yaw_error": 0.04265794254276417, "std_yaw_error": 1.02041968097476, "time_on_target": 0.08895131086142322, "time_close": 0.6008114856429463, "mean_action": 0.009138786119435648, "std_action": 1.0043711480775273, "mean_action_change": 1.1477804919829824, "max_action": 3.5152907371520996, "action_reversals": 1614, "mean_roll": 0.394427539595466, "mean_pitch": -0.22598816686826348, "max_tilt": 1.1387097700603823, "mean_altitude_error": 0.08239704675848587, "reward_facing": 0.0, "reward_error_reduction": 0.0, "reward_velocity_match": 0.0, "reward_direction_bonus": 0.0, "reward_excess_penalty": 0.0, "reward_smoothness_penalty": 0.0, "reward_tracking_bonus": 0.0, "reward_alive_bonus": 0.0, "target_pattern": "", "target_speed": 0.0}
{"timesteps": 109608, "episode": 57, "episode_length": 520, "total_reward": -66.82046159735182, "terminated": true, "truncated": false, "mean_yaw_error": 0.9250980597759334, "max_yaw_error": 2.832183147713751, "min_yaw_error": 0.00025209324589374655, "std_yaw_error": 0.950942939949865, "time_on_target": 0.12884615384615383, "time_close": 0.5173076923076924, "mean_action": -0.0167859821795271, "std_action": 1.0477662143904212, "mean_action_change": 1.1732061044788544, "max_action": 3.1957385540008545, "action_reversals": 266, "mean_roll": -1.1930892322854183, "mean_pitch": 0.7357103556671545, "max_tilt": 1.4016888540725791, "mean_altitude_error": 0.09011377320957005, "reward_facing": 0.0, "reward_error_reduction": 0.0, "reward_velocity_match": 0.0, "reward_direction_bonus": 0.0, "reward_excess_penalty": 0.0, "reward_smoothness_penalty": 0.0, "reward_tracking_bonus": 0.0, "reward_alive_bonus": 0.0, "target_pattern": "", "target_speed": 0.0}
{"timesteps": 112000, "episode": 58, "episode_length": 2389, "total_reward": 620.1974997474317, "terminated": false, "truncated": true, "mean_yaw_error": 0.7802766570711567, "max_yaw_error": 2.71859290996524, "min_yaw_error": 0.00043234892125732893, "std_yaw_error": 0.9465758243498842, "time_on_target": 0.24738384261197155, "time_close": 0.5856006697362913, "mean_action": 0.05315216315649809, "std_action": 1.0431744783214782, "mean_action_change": 1.1788963266883132, "max_action": 3.6757469177246094, "action_reversals": 1199, "mean_roll": -0.005384067115424315, "mean_pitch": -0.008472387336687672, "max_tilt": 0.97989246308056, "mean_altitude_error": 0.041005878274434415, "reward_facing": 0.0, "reward_error_reduction": 0.0, "reward_velocity_match": 0.0, "reward_direction_bonus": 0.0, "reward_excess_penalty": 0.0, "reward_smoothness_penalty": 0.0, "reward_tracking_bonus": 0.0, "reward_alive_bonus": 0.0, "target_pattern": "", "target_speed": 0.0}
{"timesteps": 112000, "episode": 59, "episode_length": 2, "total_reward": -1.6539219468832016, "terminated": false, "truncated": true, "mean_yaw_error": 1.4913599327253437, "max_yaw_error": 2.6505916711822595, "min_yaw_error": 0.33212819426842793, "std_yaw_error": 1.1592317384569157, "time_on_target": 0.0, "time_close": 0.5, "mean_action": -0.9516343474388123, "std_action": 0.06549602746963501, "mean_action_change": 0.13099205493927002, "max_action": 1.0171303749084473, "action_reversals": 0, "mean_roll": 0.24163207102693193, "mean_pitch": 0.33251500620862656, "max_tilt": 0.4110380604064388, "mean_altitude_error": 0.42689802228186635, "reward_facing": 0.0, "reward_error_reduction": 0.0, "reward_velocity_match": 0.0, "reward_direction_bonus": 0.0, "reward_excess_penalty": 0.0, "reward_smoothness_penalty": 0.0, "reward_tracking_bonus": 0.0, "reward_alive_bonus": 0.0, "target_pattern": "", "target_speed": 0.0}
{"timesteps": 112000, "episode": 60, "episode_length": 2, "total_reward": 2.2691683173179626, "terminated": false, "truncated": true, "mean_yaw_error": 0.17582391929094715, "max_yaw_error": 0.2707775640762393, "min_yaw_error": 0.08087027450565497, "std_yaw_error": 0.09495364478529217, "time_on_target": 0.5, "time_close": 1.0, "mean_action": -0.9197706878185272, "std_action": 0.11397162079811096, "mean_action_change": 0.22794324159622192, "max_action": 1.0337423086166382, "action_reversals": 0, "mean_roll": 0.0019689967322925783, "mean_pitch": -0.00035394275074080014, "max_tilt": 0.0324080775045102, "mean_altitude_error": 0.003290654515176683, "reward_facing": 0.0, "reward_error_reduction": 0.0, "reward_velocity_match": 0.0, "reward_direction_bonus": 0.0, "reward_excess_penalty": 0.0, "reward_smoothness_penalty": 0.0, "reward_tracking_bonus": 0.0, "reward_alive_bonus": 0.0, "target_pattern": "", "target_speed": 0.0}
{"timesteps": 113008, "episode": 61, "episode_length": 1005, "total_reward": 223.10218782309676, "terminated": false, "truncated": true, "mean_yaw_error": 0.6512708430210666, "max_yaw_error": 2.357504645408608, "min_yaw_error": 0.06018424762471944, "std_yaw_error": 0.7155177911579402, "time_on_target": 0.17412935323383086, "time_close": 0.5293532338308458, "mean_action": -0.058950729518016776, "std_action": 1.0857866051523735, "mean_action_change": 1.2250521179600304, "max_action": 4.2951250076293945, "action_reversals": 509, "mean_roll": 0.3002192915747527, "mean_pitch": -0.0809680109535465, "max_tilt": 1.0268157015150474, "mean_altitude_error": 0.03429809640222727, "reward_facing": 0.0, "reward_error_reduction": 0.0, "reward_velocity_match": 0.0, "reward_direction_bonus": 0.0, "reward_excess_penalty": 0.0, "reward_smoothness_penalty": 0.0, "reward_tracking_bonus": 0.0, "reward_alive_bonus": 0.0, "target_pattern": "", "target_speed": 0.0}
{"timesteps": 117432, "episode": 62, "episode_length": 4429, "total_reward": 1269.0524258876103, "terminated": false, "truncated": true, "mean_yaw_error": 0.6865752751224634, "max_yaw_error": 3.13919876166463, "min_yaw_error": 1.1338034965856284e-05, "std_yaw_error": 0.7609170425179166, "time_on_target": 0.2420410927974712, "time_close": 0.4529239105892978, "mean_action": 0.03843933575224997, "std_action": 1.0374672781112475, "mean_action_change": 1.1623449078952437, "max_action": 3.5953569412231445, "action_reversals": 2141, "mean_roll": 0.004347709975575128, "mean_pitch": -0.011745465852765797, "max_tilt": 0.9833712940574034, "mean_altitude_error": 0.0800138897767747, "reward_facing": 0.0, "reward_error_reduction": 0.0, "reward_velocity_match": 0.0, "reward_direction_bonus": 0.0, "reward_excess_penalty": 0.0, "reward_smoothness_penalty": 0.0, "reward_tracking_bonus": 0.0, "reward_alive_bonus": 0.0, "target_pattern": "", "target_speed": 0.0}
{"timesteps": 118728, "episode": 63, "episode_length": 1295, "total_reward": 91.99559397995472, "terminated": false, "truncated": true, "mean_yaw_error": 0.8949300811102794, "max_yaw_error": 2.374754491300302, "min_yaw_error": 0.00026314291703844383, "std_yaw_error": 0.8825765413654654, "time_on_target": 0.27104247104247103, "time_close": 0.4756756756756757, "mean_action": 0.10176840691348991, "std_action": 1.0238176939359056, "mean_action_change": 1.1550796985067715, "max_action": 3.5643386840820312, "action_reversals": 647, "mean_roll": 0.008701996202194083, "mean_pitch": 0.017875336082463625, "max_tilt": 0.9705300098861472, "mean_altitude_error": 0.1699424165525962, "reward_facing": 0.0, "reward_error_reduction": 0.0, "reward_velocity_match": 0.0, "reward_direction_bonus": 0.0, "reward_excess_penalty": 0.0, "reward_smoothness_penalty": 0.0, "reward_tracking_bonus": 0.0, "reward_alive_bonus": 0.0, "target_pattern": "", "target_speed": 0.0}
{"timesteps": 121880, "episode": 64, "episode_length": 3154, "total_reward": -1100.5274056876078, "terminated": false, "truncated": true, "mean_yaw_error": 1.1348161071678928, "max_yaw_error": 3.029963022235798, "min_yaw_error": 0.006835184183475929, "std_yaw_error": 0.9355396270042429, "time_on_target": 0.12301838934686113, "time_close": 0.3890298034242232, "mean_action": 0.04802368437536486, "std_action": 1.0309353759697193, "mean_action_change": 1.1788974534206227, "max_action": 3.3734774589538574, "action_reversals": 1579, "mean_roll": -0.11966928191935447, "mean_pitch": 0.21527442193907975, "max_tilt": 1.1491376614953155, "mean_altitude_error": 0.04447822026631195, "reward_facing": 0.0, "reward_error_reduction": 0.0, "reward_velocity_match": 0.0, "reward_direction_bonus": 0.0, "reward_excess_penalty": 0.0, "reward_smoothness_penalty": 0.0, "reward_tracking_bonus": 0.0, "reward_alive_bonus": 0.0, "target_pattern": "", "target_speed": 0.0}
