{"timesteps": 16000, "episode": 1, "episode_length": 15993, "total_reward": -274.0502642127815, "terminated": false, "truncated": true, "mean_yaw_error": 1.7607436862019505, "max_yaw_error": 3.1415878377455018, "min_yaw_error": 0.0007751591056251484, "std_yaw_error": 0.8953606148952861, "time_on_target": 0.01544425686237729, "time_close": 0.06652910648408679, "mean_action": -0.0013844650073443045, "std_action": 1.001696508499843, "mean_action_change": 1.1325965863714405, "max_action": 3.6175761222839355, "action_reversals": 8063, "mean_roll": -0.1929557998495768, "mean_pitch": 0.022817213128661647, "max_tilt": 0.4319597148908581, "mean_altitude_error": 0.002062739178160195, "reward_facing": 0.0, "reward_error_reduction": 0.0, "reward_velocity_match": 0.0, "reward_direction_bonus": 0.0, "reward_excess_penalty": 0.0, "reward_smoothness_penalty": 0.0, "reward_tracking_bonus": 0.0, "reward_alive_bonus": 0.0, "target_pattern": "", "target_speed": 0.0}
{"timesteps": 16000, "episode": 2, "episode_length": 1, "total_reward": -0.024300478398799896, "terminated": false, "truncated": true, "mean_yaw_error": 2.532297211400554, "max_yaw_error": 2.532297211400554, "min_yaw_error": 2.532297211400554, "std_yaw_error": 0.0, "time_on_target": 0.0, "time_close": 0.0, "mean_action": -1.0246119499206543, "std_action": 0.0, "mean_action_change": 0.0, "max_action": 1.0246119499206543, "action_reversals": 0, "mean_roll": 0.023865403290407955, "mean_pitch": -0.05747112608412332, "max_tilt": 0.06222931630341936, "mean_altitude_error": 0.00043561021913851583, "reward_facing": 0.0, "reward_error_reduction": 0.0, "reward_velocity_match": 0.0, "reward_direction_bonus": 0.0, "reward_excess_penalty": 0.0, "reward_smoothness_penalty": 0.0, "reward_tracking_bonus": 0.0, "reward_alive_bonus": 0.0, "target_pattern": "", "target_speed": 0.0}
{"timesteps": 16000, "episode": 3, "episode_length": 1, "total_reward": 0.0029930798336863518, "terminated": false, "truncated": true, "mean_yaw_error": 0.43656027436977785, "max_yaw_error": 0.43656027436977785, "min_yaw_error": 0.43656027436977785, "std_yaw_error": 0.0, "time_on_target": 0.0, "time_close": 0.0, "mean_action": -0.08698218315839767, "std_action": 0.0, "mean_action_change": 0.0, "max_action": 0.08698218315839767, "action_reversals": 0, "mean_roll": 0.010616292962022671, "mean_pitch": 0.025333500225690565, "max_tilt": 0.027468016126771078, "mean_altitude_error": 7.844273177570749e-05, "reward_facing": 0.0, "reward_error_reduction": 0.0, "reward_velocity_match": 0.0, "reward_direction_bonus": 0.0, "reward_excess_penalty": 0.0, "reward_smoothness_penalty": 0.0, "reward_tracking_bonus": 0.0, "reward_alive_bonus": 0.0, "target_pattern": "", "target_speed": 0.0}
{"timesteps": 16000, "episode": 4, "episode_length": 1, "total_reward": -0.02037184126675129, "terminated": false, "truncated": true, "mean_yaw_error": 2.1137695485215726, "max_yaw_error": 2.1137695485215726, "min_yaw_error": 2.1137695485215726, "std_yaw_error": 0.0, "time_on_target": 0.0, "time_close": 0.0, "mean_action": -0.6308413743972778, "std_action": 0.0, "mean_action_change": 0.0, "max_action": 0.6308413743972778, "action_reversals": 0, "mean_roll": -0.11318169908699625, "mean_pitch": 0.07854674539456488, "max_tilt": 0.1377667892501599, "mean_altitude_error": 0.0004315337218148141, "reward_facing": 0.0, "reward_error_reduction": 0.0, "reward_velocity_match": 0.0, "reward_direction_bonus": 0.0, "reward_excess_penalty": 0.0, "reward_smoothness_penalty": 0.0, "reward_tracking_bonus": 0.0, "reward_alive_bonus": 0.0, "target_pattern": "", "target_speed": 0.0}
{"timesteps": 16000, "episode": 5, "episode_length": 1, "total_reward": -0.007075078785419464, "terminated": false, "truncated": true, "mean_yaw_error": 1.2093022704735812, "max_yaw_error": 1.2093022704735812, "min_yaw_error": 1.2093022704735812, "std_yaw_error": 0.0, "time_on_target": 0.0, "time_close": 0.0, "mean_action": 0.35767310857772827, "std_action": 0.0, "mean_action_change": 0.0, "max_action": 0.35767310857772827, "action_reversals": 0, "mean_roll": 0.04081226432026266, "mean_pitch": 0.01321801442251169, "max_tilt": 0.04289938023119578, "mean_altitude_error": 0.0006656417121804203, "reward_facing": 0.0, "reward_error_reduction": 0.0, "reward_velocity_match": 0.0, "reward_direction_bonus": 0.0, "reward_excess_penalty": 0.0, "reward_smoothness_penalty": 0.0, "reward_tracking_bonus": 0.0, "reward_alive_bonus": 0.0, "target_pattern": "", "target_speed": 0.0}
{"timesteps": 16000, "episode": 6, "episode_length": 1, "total_reward": 0.004890013486146927, "terminated": false, "truncated": true, "mean_yaw_error": 0.2357256413821486, "max_yaw_error": 0.2357256413821486, "min_yaw_error": 0.2357256413821486, "std_yaw_error": 0.0, "time_on_target": 0.0, "time_close": 1.0, "mean_action": -0.22520773112773895, "std_action": 0.0, "mean_action_change": 0.0, "max_action": 0.22520773112773895, "action_reversals": 0, "mean_roll": -0.1358320080559707, "mean_pitch": -0.4039818776245739, "max_tilt": 0.4262061612196537, "mean_altitude_error": 0.0021586118228932305, "reward_facing": 0.0, "reward_error_reduction": 0.0, "reward_velocity_match": 0.0, "reward_direction_bonus": 0.0, "reward_excess_penalty": 0.0, "reward_smoothness_penalty": 0.0, "reward_tracking_bonus": 0.0, "reward_alive_bonus": 0.0, "target_pattern": "", "target_speed": 0.0}
{"timesteps": 16000, "episode": 7, "episode_length": 1, "total_reward": -0.021333154290914536, "terminated": false, "truncated": true, "mean_yaw_error": 2.4040251785296465, "max_yaw_error": 2.4040251785296465, "min_yaw_error": 2.4040251785296465, "std_yaw_error": 0.0, "time_on_target": 0.0, "time_close": 0.0, "mean_action": 0.35764583945274353, "std_action": 0.0, "mean_action_change": 0.0, "max_action": 0.35764583945274353, "action_reversals": 0, "mean_roll": 0.014301560910972845, "mean_pitch": -0.011525132366808659, "max_tilt": 0.018367452751068315, "mean_altitude_error": 0.0006115040425878071, "reward_facing": 0.0, "reward_error_reduction": 0.0, "reward_velocity_match": 0.0, "reward_direction_bonus": 0.0, "reward_excess_penalty": 0.0, "reward_smoothness_penalty": 0.0, "reward_tracking_bonus": 0.0, "reward_alive_bonus": 0.0, "target_pattern": "", "target_speed": 0.0}
{"timesteps": 16000, "episode": 8, "episode_length": 1, "total_reward": -0.02270919270813465, "terminated": false, "truncated": true, "mean_yaw_error": 2.5419925583271032, "max_yaw_error": 2.5419925583271032, "min_yaw_error": 2.5419925583271032, "std_yaw_error": 0.0, "time_on_target": 0.0, "time_close": 0.0, "mean_action": 0.48681122064590454, "std_action": 0.0, "mean_action_change": 0.0, "max_action": 0.48681122064590454, "action_reversals": 0, "mean_roll": -0.00601278095655385, "mean_pitch": -0.03034675589023338, "max_tilt": 0.030936695490839206, "mean_altitude_error": 0.0004702255092827734, "reward_facing": 0.0, "reward_error_reduction": 0.0, "reward_velocity_match": 0.0, "reward_direction_bonus": 0.0, "reward_excess_penalty": 0.0, "reward_smoothness_penalty": 0.0, "reward_tracking_bonus": 0.0, "reward_alive_bonus": 0.0, "target_pattern": "", "target_speed": 0.0}
{"timesteps": 26288, "episode": 9, "episode_length": 10284, "total_reward": -70.48421844393056, "terminated": true, "truncated": false, "mean_yaw_error": 1.2673283839503429, "max_yaw_error": 3.1406535728528433, "min_yaw_error": 4.211546394673923e-05, "std_yaw_error": 0.8430292492963759, "time_on_target": 0.039673278879813305, "time_close": 0.13905095293660055, "mean_action": -0.0803424177657335, "std_action": 1.0071185611702727, "mean_action_change": 1.1400001014081602, "max_action": 4.1705522537231445, "action_reversals": 5236, "mean_roll": -1.3358492522106113, "mean_pitch": 0.4547092230252558, "max_tilt": 1.4111178909417461, "mean_altitude_error": 0.044754676936433764, "reward_facing": 0.0, "reward_error_reduction": 0.0, "reward_velocity_match": 0.0, "reward_direction_bonus": 0.0, "reward_excess_penalty": 0.0, "reward_smoothness_penalty": 0.0, "reward_tracking_bonus": 0.0, "reward_alive_bonus": 0.0, "target_pattern": "", "target_speed": 0.0}
{"timesteps": 26544, "episode": 10, "episode_length": 259, "total_reward": -2.868746703839861, "terminated": true, "truncated": false, "mean_yaw_error": 1.429508769447132, "max_yaw_error": 3.1314200825194236, "min_yaw_error": 0.12384781634674821, "std_yaw_error": 0.7279592380773496, "time_on_target": 0.0, "time_close": 0.1274131274131274, "mean_action": -0.1445546152940358, "std_action": 1.014841627155795, "mean_action_change": 1.1639915185208007, "max_action": 3.0576770305633545, "action_reversals": 123, "mean_roll": -1.4389857173590321, "mean_pitch": -0.09432832888150267, "max_tilt": 1.4420741064150848, "mean_altitude_error": 0.11907473158950466, "reward_facing": 0.0, "reward_error_reduction": 0.0, "reward_velocity_match": 0.0, "reward_direction_bonus": 0.0, "reward_excess_penalty": 0.0, "reward_smoothness_penalty": 0.0, "reward_tracking_bonus": 0.0, "reward_alive_bonus": 0.0, "target_pattern": "", "target_speed": 0.0}
{"timesteps": 32000, "episode": 11, "episode_length": 5450, "total_reward": -24.76407841323328, "terminated": false, "truncated": true, "mean_yaw_error": 1.1095366270849323, "max_yaw_error": 3.1398706394264577, "min_yaw_error": 0.0001567783142002908, "std_yaw_error": 0.7979553591646656, "time_on_target": 0.0891743119266055, "time_close": 0.21779816513761469, "mean_action": -0.06942753183510189, "std_action": 1.0374706986527733, "mean_action_change": 1.162571742036478, "max_action": 4.157668113708496, "action_reversals": 2674, "mean_roll": -0.27387623676402206, "mean_pitch": 0.01977789633904247, "max_tilt": 1.3576259453196209, "mean_altitude_error": 0.1007059717589013, "reward_facing": 0.0, "reward_error_reduction": 0.0, "reward_velocity_match": 0.0, "reward_direction_bonus": 0.0, "reward_excess_penalty": 0.0, "reward_smoothness_penalty": 0.0, "reward_tracking_bonus": 0.0, "reward_alive_bonus": 0.0, "target_pattern": "", "target_speed": 0.0}
{"timesteps": 32000, "episode": 12, "episode_length": 1, "total_reward": 0.00362875172868371, "terminated": false, "truncated": true, "mean_yaw_error": 0.46446478961619236, "max_yaw_error": 0.46446478961619236, "min_yaw_error": 0.46446478961619236, "std_yaw_error": 0.0, "time_on_target": 0.0, "time_close": 0.0, "mean_action": 0.12410075962543488, "std_action": 0.0, "mean_action_change": 0.0, "max_action": 0.12410075962543488, "action_reversals": 0, "mean_roll": 0.07342800607749869, "mean_pitch": 0.0647685076359795, "max_tilt": 0.09791134591000739, "mean_altitude_error": 0.051019834477484594, "reward_facing": 0.0, "reward_error_reduction": 0.0, "reward_velocity_match": 0.0, "reward_direction_bonus": 0.0, "reward_excess_penalty": 0.0, "reward_smoothness_penalty": 0.0, "reward_tracking_bonus": 0.0, "reward_alive_bonus": 0.0, "target_pattern": "", "target_speed": 0.0}
{"timesteps": 32000, "episode": 13, "episode_length": 1, "total_reward": 0.0010397022124379873, "terminated": false, "truncated": true, "mean_yaw_error": 0.4465931775716175, "max_yaw_error": 0.4465931775716175, "min_yaw_error": 0.4465931775716175, "std_yaw_error": 0.0, "time_on_target": 0.0, "time_close": 0.0, "mean_action": -1.5526679754257202, "std_action": 0.0, "mean_action_change": 0.0, "max_action": 1.5526679754257202, "action_reversals": 0, "mean_roll": 0.031073241256562655, "mean_pitch": 0.04896341537928572, "max_tilt": 0.05799105420487733, "mean_altitude_error": 0.1376414659732612, "reward_facing": 0.0, "reward_error_reduction": 0.0, "reward_velocity_match": 0.0, "reward_direction_bonus": 0.0, "reward_excess_penalty": 0.0, "reward_smoothness_penalty": 0.0, "reward_tracking_bonus": 0.0, "reward_alive_bonus": 0.0, "target_pattern": "", "target_speed": 0.0}
{"timesteps": 32000, "episode": 14, "episode_length": 2, "total_reward": -0.028272509574890137, "terminated": false, "truncated": true, "mean_yaw_error": 1.9596220580892, "max_yaw_error": 2.4098958663101198, "min_yaw_error": 1.5093482498682804, "std_yaw_error": 0.45027380822091967, "time_on_target": 0.0, "time_close": 0.0, "mean_action": 0.24586254358291626, "std_action": 0.7836946845054626, "mean_action_change": 1.5673893690109253, "max_action": 1.029557228088379, "action_reversals": 1, "mean_roll": -0.015348570554499109, "mean_pitch": 0.007216821437249348, "max_tilt": 0.032809249098883296, "mean_altitude_error": 0.003915205669619004, "reward_facing": 0.0, "reward_error_reduction": 0.0, "reward_velocity_match": 0.0, "reward_direction_bonus": 0.0, "reward_excess_penalty": 0.0, "reward_smoothness_penalty": 0.0, "reward_tracking_bonus": 0.0, "reward_alive_bonus": 0.0, "target_pattern": "", "target_speed": 0.0}
{"timesteps": 32000, "episode": 15, "episode_length": 1, "total_reward": -0.02027597278356552, "terminated": false, "truncated": true, "mean_yaw_error": 2.419008666261249, "max_yaw_error": 2.419008666261249, "min_yaw_error": 2.419008666261249, "std_yaw_error": 0.0, "time_on_target": 0.0, "time_close": 0.0, "mean_action": -0.1820979118347168, "std_action": 0.0, "mean_action_change": 0.0, "max_action": 0.1820979118347168, "action_reversals": 0, "mean_roll": -0.23716200243347857, "mean_pitch": -0.31140243310074045, "max_tilt": 0.3914298030800905, "mean_altitude_error": 0.006675567382157022, "reward_facing": 0.0, "reward_error_reduction": 0.0, "reward_velocity_match": 0.0, "reward_direction_bonus": 0.0, "reward_excess_penalty": 0.0, "reward_smoothness_penalty": 0.0, "reward_tracking_bonus": 0.0, "reward_alive_bonus": 0.0, "target_pattern": "", "target_speed": 0.0}
{"timesteps": 32000, "episode": 16, "episode_length": 2, "total_reward": -0.008061227854341269, "terminated": false, "truncated": true, "mean_yaw_error": 0.9897493086415565, "max_yaw_error": 1.2800038490944132, "min_yaw_error": 0.6994947681886998, "std_yaw_error": 0.2902545404528567, "time_on_target": 0.0, "time_close": 0.0, "mean_action": -0.46413802076131105, "std_action": 0.4608014924451709, "mean_action_change": 0.9216029848903418, "max_action": 0.9249395132064819, "action_reversals": 0, "mean_roll": -0.4077187483264401, "mean_pitch": 0.07161492619088675, "max_tilt": 0.4139604756377174, "mean_altitude_error": 0.026156109542312622, "reward_facing": 0.0, "reward_error_reduction": 0.0, "reward_velocity_match": 0.0, "reward_direction_bonus": 0.0, "reward_excess_penalty": 0.0, "reward_smoothness_penalty": 0.0, "reward_tracking_bonus": 0.0, "reward_alive_bonus": 0.0, "target_pattern": "", "target_speed": 0.0}
{"timesteps": 42288, "episode": 17, "episode_length": 10284, "total_reward": -87.55545969879898, "terminated": false, "truncated": true, "mean_yaw_error": 1.4676730740709765, "max_yaw_error": 3.141474943537287, "min_yaw_error": 0.00022834221033533734, "std_yaw_error": 0.956769939033522, "time_on_target": 0.045313107740178916, "time_close": 0.15810968494749125, "mean_action": -0.09702336438863604, "std_action": 1.017013891366946, "mean_action_change": 1.148311650896193, "max_action": 3.9281513690948486, "action_reversals": 5131, "mean_roll": -0.25140042058589457, "mean_pitch": -0.2869193067649719, "max_tilt": 1.0025819346250522, "mean_altitude_error": 0.04034673550236479, "reward_facing": 0.0, "reward_error_reduction": 0.0, "reward_velocity_match": 0.0, "reward_direction_bonus": 0.0, "reward_excess_penalty": 0.0, "reward_smoothness_penalty": 0.0, "reward_tracking_bonus": 0.0, "reward_alive_bonus": 0.0, "target_pattern": "", "target_speed": 0.0}
{"timesteps": 42544, "episode": 18, "episode_length": 259, "total_reward": -2.2225540042854846, "terminated": false, "truncated": true, "mean_yaw_error": 1.4571848278796722, "max_yaw_error": 2.6006513294065594, "min_yaw_error": 0.29036099573509694, "std_yaw_error": 0.6432433606257332, "time_on_target": 0.0, "time_close": 0.05019305019305019, "mean_action": -0.20008953363710158, "std_action": 1.063577880162164, "mean_action_change": 1.2349117457606764, "max_action": 3.5832676887512207, "action_reversals": 133, "mean_roll": 0.06800676894090363, "mean_pitch": 0.09041678769245941, "max_tilt": 0.48618621134639733, "mean_altitude_error": 0.08472125972421281, "reward_facing": 0.0, "reward_error_reduction": 0.0, "reward_velocity_match": 0.0, "reward_direction_bonus": 0.0, "reward_excess_penalty": 0.0, "reward_smoothness_penalty": 0.0, "reward_tracking_bonus": 0.0, "reward_alive_bonus": 0.0, "target_pattern": "", "target_speed": 0.0}
{"timesteps": 48000, "episode": 19, "episode_length": 5450, "total_reward": -53.361524742704205, "terminated": false, "truncated": true, "mean_yaw_error": 1.5488997157758386, "max_yaw_error": 3.1414771304820257, "min_yaw_error": 0.0011635580026022135, "std_yaw_error": 0.8652642242548191, "time_on_target": 0.026238532110091743, "time_close": 0.10972477064220183, "mean_action": -0.08812170206881, "std_action": 1.0299066167550013, "mean_action_change": 1.1824124265273468, "max_action": 4.310854911804199, "action_reversals": 2770, "mean_roll": -0.015314150066763652, "mean_pitch": 0.0257820800156282, "max_tilt": 0.6575911482297985, "mean_altitude_error": 0.021211378188540454, "reward_facing": 0.0, "reward_error_reduction": 0.0, "reward_velocity_match": 0.0, "reward_direction_bonus": 0.0, "reward_excess_penalty": 0.0, "reward_smoothness_penalty": 0.0, "reward_tracking_bonus": 0.0, "reward_alive_bonus": 0.0, "target_pattern": "", "target_speed": 0.0}
{"timesteps": 48000, "episode": 20, "episode_length": 1, "total_reward": -0.01639525219798088, "terminated": false, "truncated": true, "mean_yaw_error": 1.8019735651087292, "max_yaw_error": 1.8019735651087292, "min_yaw_error": 1.8019735651087292, "std_yaw_error": 0.0, "time_on_target": 0.0, "time_close": 0.0, "mean_action": 0.39192456007003784, "std_action": 0.0, "mean_action_change": 0.0, "max_action": 0.39192456007003784, "action_reversals": 0, "mean_roll": -0.029169526477265787, "mean_pitch": -0.01079971389298347, "max_tilt": 0.03110458318444743, "mean_altitude_error": 0.024950996335413533, "reward_facing": 0.0, "reward_error_reduction": 0.0, "reward_velocity_match": 0.0, "reward_direction_bonus": 0.0, "reward_excess_penalty": 0.0, "reward_smoothness_penalty": 0.0, "reward_tracking_bonus": 0.0, "reward_alive_bonus": 0.0, "target_pattern": "", "target_speed": 0.0}
{"timesteps": 48000, "episode": 21, "episode_length": 1, "total_reward": -0.01756524108350277, "terminated": false, "truncated": true, "mean_yaw_error": 2.281619038761697, "max_yaw_error": 2.281619038761697, "min_yaw_error": 2.281619038761697, "std_yaw_error": 0.0, "time_on_target": 0.0, "time_close": 0.0, "mean_action": 0.2563270330429077, "std_action": 0.0, "mean_action_change": 0.0, "max_action": 0.2563270330429077, "action_reversals": 0, "mean_roll": 0.2191574679018234, "mean_pitch": -0.2519003101807197, "max_tilt": 0.3338918417785639, "mean_altitude_error": 0.008767839250599985, "reward_facing": 0.0, "reward_error_reduction": 0.0, "reward_velocity_match": 0.0, "reward_direction_bonus": 0.0, "reward_excess_penalty": 0.0, "reward_smoothness_penalty": 0.0, "reward_tracking_bonus": 0.0, "reward_alive_bonus": 0.0, "target_pattern": "", "target_speed": 0.0}
{"timesteps": 48000, "episode": 22, "episode_length": 2, "total_reward": -0.029070690739899874, "terminated": false, "truncated": true, "mean_yaw_error": 2.1006942238730986, "max_yaw_error": 3.093597884211228, "min_yaw_error": 1.1077905635349685, "std_yaw_error": 0.9929036603381298, "time_on_target": 0.0, "time_close": 0.0, "mean_action": -0.10039183497428894, "std_action": 0.47091004252433777, "mean_action_change": 0.9418200850486755, "max_action": 0.5713018774986267, "action_reversals": 1, "mean_roll": -0.02275185235886474, "mean_pitch": 0.023510958249624944, "max_tilt": 0.5010746897469223, "mean_altitude_error": 0.037007909778031256, "reward_facing": 0.0, "reward_error_reduction": 0.0, "reward_velocity_match": 0.0, "reward_direction_bonus": 0.0, "reward_excess_penalty": 0.0, "reward_smoothness_penalty": 0.0, "reward_tracking_bonus": 0.0, "reward_alive_bonus": 0.0, "target_pattern": "", "target_speed": 0.0}
{"timesteps": 48000, "episode": 23, "episode_length": 1, "total_reward": -0.016757024452090263, "terminated": false, "truncated": true, "mean_yaw_error": 1.8480367151373294, "max_yaw_error": 1.8480367151373294, "min_yaw_error": 1.8480367151373294, "std_yaw_error": 0.0, "time_on_target": 0.0, "time_close": 0.0, "mean_action": -0.26449528336524963, "std_action": 0.0, "mean_action_change": 0.0, "max_action": 0.26449528336524963, "action_reversals": 0, "mean_roll": 0.12093496650775516, "mean_pitch": -0.03702287637256341, "max_tilt": 0.12647513391623658, "mean_altitude_error": 0.03125404435211476, "reward_facing": 0.0, "reward_error_reduction": 0.0, "reward_velocity_match": 0.0, "reward_direction_bonus": 0.0, "reward_excess_penalty": 0.0, "reward_smoothness_penalty": 0.0, "reward_tracking_bonus": 0.0, "reward_alive_bonus": 0.0, "target_pattern": "", "target_speed": 0.0}
{"timesteps": 48000, "episode": 24, "episode_length": 2, "total_reward": -0.023720131255686283, "terminated": false, "truncated": true, "mean_yaw_error": 1.4873463249479344, "max_yaw_error": 1.5714914648768024, "min_yaw_error": 1.4032011850190667, "std_yaw_error": 0.08414513992886785, "time_on_target": 0.0, "time_close": 0.0, "mean_action": 0.7512220740318298, "std_action": 0.3113763928413391, "mean_action_change": 0.6227527856826782, "max_action": 1.062598466873169, "action_reversals": 0, "mean_roll": -0.023457771878202513, "mean_pitch": -0.0093768832449819, "max_tilt": 0.05336614190339466, "mean_altitude_error": 0.0007998640126432588, "reward_facing": 0.0, "reward_error_reduction": 0.0, "reward_velocity_match": 0.0, "reward_direction_bonus": 0.0, "reward_excess_penalty": 0.0, "reward_smoothness_penalty": 0.0, "reward_tracking_bonus": 0.0, "reward_alive_bonus": 0.0, "target_pattern": "", "target_speed": 0.0}
{"timesteps": 49496, "episode": 25, "episode_length": 1492, "total_reward": -14.195792248550788, "terminated": true, "truncated": false, "mean_yaw_error": 1.444053450215606, "max_yaw_error": 3.139046042248927, "min_yaw_error": 0.0007278762909504173, "std_yaw_error": 0.8876595197568466, "time_on_target": 0.03820375335120643, "time_close": 0.15214477211796246, "mean_action": -0.07823706386565922, "std_action": 1.012347697987031, "mean_action_change": 1.1340596327504442, "max_action": 3.6145169734954834, "action_reversals": 752, "mean_roll": 1.3341845182553815, "mean_pitch": -0.5257584002390315, "max_tilt": 1.4340398265648866, "mean_altitude_error": 0.07573556474968467, "reward_facing": 0.0, "reward_error_reduction": 0.0, "reward_velocity_match": 0.0, "reward_direction_bonus": 0.0, "reward_excess_penalty": 0.0, "reward_smoothness_penalty": 0.0, "reward_tracking_bonus": 0.0, "reward_alive_bonus": 0.0, "target_pattern": "", "target_speed": 0.0}
{"timesteps": 55600, "episode": 26, "episode_length": 6108, "total_reward": -60.83551186229215, "terminated": true, "truncated": false, "mean_yaw_error": 1.5194192868387553, "max_yaw_error": 3.141226319634589, "min_yaw_error": 6.731455673996073e-05, "std_yaw_error": 0.8432195108439563, "time_on_target": 0.03094302554027505, "time_close": 0.10609037328094302, "mean_action": -0.10575460771220103, "std_action": 1.0291034281621678, "mean_action_change": 1.1569698183178605, "max_action": 4.034736156463623, "action_reversals": 3032, "mean_roll": 1.1739494401070458, "mean_pitch": 0.9187122006996842, "max_tilt": 1.4907009745895061, "mean_altitude_error": 0.033438984281896865, "reward_facing": 0.0, "reward_error_reduction": 0.0, "reward_velocity_match": 0.0, "reward_direction_bonus": 0.0, "reward_excess_penalty": 0.0, "reward_smoothness_penalty": 0.0, "reward_tracking_bonus": 0.0, "reward_alive_bonus": 0.0, "target_pattern": "", "target_speed": 0.0}
{"timesteps": 58544, "episode": 27, "episode_length": 2943, "total_reward": -34.38537920719432, "terminated": false, "truncated": true, "mean_yaw_error": 1.7002368896502233, "max_yaw_error": 3.141284636788015, "min_yaw_error": 0.002845144129021307, "std_yaw_error": 0.9601344777248849, "time_on_target": 0.01291199456337071, "time_close": 0.06422018348623854, "mean_action": -0.10835745525358081, "std_action": 1.0151245957840858, "mean_action_change": 1.136145854986733, "max_action": 3.9860727787017822, "action_reversals": 1444, "mean_roll": -0.00041788728904024544, "mean_pitch": 0.003228027479144428, "max_tilt": 0.7857218873475333, "mean_altitude_error": 0.04751410076923671, "reward_facing": 0.0, "reward_error_reduction": 0.0, "reward_velocity_match": 0.0, "reward_direction_bonus": 0.0, "reward_excess_penalty": 0.0, "reward_smoothness_penalty": 0.0, "reward_tracking_bonus": 0.0, "reward_alive_bonus": 0.0, "target_pattern": "", "target_speed": 0.0}
{"timesteps": 64000, "episode": 28, "episode_length": 5450, "total_reward": -50.245259131173555, "terminated": false, "truncated": true, "mean_yaw_error": 1.4920289376300067, "max_yaw_error": 3.141109607644178, "min_yaw_error": 0.0002838698564129537, "std_yaw_error": 0.905437690028606, "time_on_target": 0.03504587155963303, "time_close": 0.1344954128440367, "mean_action": -0.11086490791914728, "std_action": 1.0133554978799413, "mean_action_change": 1.1447860264846776, "max_action": 3.7349436283111572, "action_reversals": 2702, "mean_roll": 0.0005235471052890906, "mean_pitch": 0.0027938873814631017, "max_tilt": 1.0604054286821853, "mean_altitude_error": 0.03838258179856641, "reward_facing": 0.0, "reward_error_reduction": 0.0, "reward_velocity_match": 0.0, "reward_direction_bonus": 0.0, "reward_excess_penalty": 0.0, "reward_smoothness_penalty": 0.0, "reward_tracking_bonus": 0.0, "reward_alive_bonus": 0.0, "target_pattern": "", "target_speed": 0.0}
{"timesteps": 64000, "episode": 29, "episode_length": 1, "total_reward": -0.007377592381089926, "terminated": false, "truncated": true, "mean_yaw_error": 1.3253682752880598, "max_yaw_error": 1.3253682752880598, "min_yaw_error": 1.3253682752880598, "std_yaw_error": 0.0, "time_on_target": 0.0, "time_close": 0.0, "mean_action": 0.5914017558097839, "std_action": 0.0, "mean_action_change": 0.0, "max_action": 0.5914017558097839, "action_reversals": 0, "mean_roll": 0.004769682660496789, "mean_pitch": -0.00931950030605018, "max_tilt": 0.010469143166291743, "mean_altitude_error": 0.003240941769858896, "reward_facing": 0.0, "reward_error_reduction": 0.0, "reward_velocity_match": 0.0, "reward_direction_bonus": 0.0, "reward_excess_penalty": 0.0, "reward_smoothness_penalty": 0.0, "reward_tracking_bonus": 0.0, "reward_alive_bonus": 0.0, "target_pattern": "", "target_speed": 0.0}
{"timesteps": 64000, "episode": 30, "episode_length": 1, "total_reward": -0.0006563656497746706, "terminated": false, "truncated": true, "mean_yaw_error": 0.5584220701895426, "max_yaw_error": 0.5584220701895426, "min_yaw_error": 0.5584220701895426, "std_yaw_error": 0.0, "time_on_target": 0.0, "time_close": 0.0, "mean_action": 0.870684027671814, "std_action": 0.0, "mean_action_change": 0.0, "max_action": 0.870684027671814, "action_reversals": 0, "mean_roll": 0.13926294912528644, "mean_pitch": -0.3128610595522046, "max_tilt": 0.342456145489025, "mean_altitude_error": 0.05680649297230955, "reward_facing": 0.0, "reward_error_reduction": 0.0, "reward_velocity_match": 0.0, "reward_direction_bonus": 0.0, "reward_excess_penalty": 0.0, "reward_smoothness_penalty": 0.0, "reward_tracking_bonus": 0.0, "reward_alive_bonus": 0.0, "target_pattern": "", "target_speed": 0.0}
{"timesteps": 64000, "episode": 31, "episode_length": 2, "total_reward": -0.020372265484184027, "terminated": false, "truncated": true, "mean_yaw_error": 1.327530230072143, "max_yaw_error": 1.8907193675885283, "min_yaw_error": 0.7643410925557574, "std_yaw_error": 0.5631891375163854, "time_on_target": 0.0, "time_close": 0.0, "mean_action": -0.39293307065963745, "std_action": 0.9998095631599426, "mean_action_change": 1.9996191263198853, "max_action": 1.39274263381958, "action_reversals": 1, "mean_roll": -0.4200949518559009, "mean_pitch": 0.09887081521914116, "max_tilt": 0.4315729447925452, "mean_altitude_error": 0.0010681055903318804, "reward_facing": 0.0, "reward_error_reduction": 0.0, "reward_velocity_match": 0.0, "reward_direction_bonus": 0.0, "reward_excess_penalty": 0.0, "reward_smoothness_penalty": 0.0, "reward_tracking_bonus": 0.0, "reward_alive_bonus": 0.0, "target_pattern": "", "target_speed": 0.0}
{"timesteps": 64000, "episode": 32, "episode_length": 1, "total_reward": 0.008686132729053497, "terminated": false, "truncated": true, "mean_yaw_error": 0.18312551164458643, "max_yaw_error": 0.18312551164458643, "min_yaw_error": 0.18312551164458643, "std_yaw_error": 0.0, "time_on_target": 0.0, "time_close": 1.0, "mean_action": 0.4868919253349304, "std_action": 0.0, "mean_action_change": 0.0, "max_action": 0.4868919253349304, "action_reversals": 0, "mean_roll": 0.0018411704137687843, "mean_pitch": -0.005951592155910625, "max_tilt": 0.006229876217296327, "mean_altitude_error": 0.0005591824299513437, "reward_facing": 0.0, "reward_error_reduction": 0.0, "reward_velocity_match": 0.0, "reward_direction_bonus": 0.0, "reward_excess_penalty": 0.0, "reward_smoothness_penalty": 0.0, "reward_tracking_bonus": 0.0, "reward_alive_bonus": 0.0, "target_pattern": "", "target_speed": 0.0}
{"timesteps": 65496, "episode": 33, "episode_length": 1494, "total_reward": -10.219286380202732, "terminated": false, "truncated": true, "mean_yaw_error": 1.2478483415480244, "max_yaw_error": 2.7094228740637303, "min_yaw_error": 0.0001889274753549654, "std_yaw_error": 0.770159309852844, "time_on_target": 0.030789825970548863, "time_close": 0.12650602409638553, "mean_action": -0.10772733720720133, "std_action": 1.0098150606084468, "mean_action_change": 1.1166213083181378, "max_action": 3.500411033630371, "action_reversals": 727, "mean_roll": -0.10498751666328203, "mean_pitch": 0.22558895212669358, "max_tilt": 0.8168215396732964, "mean_altitude_error": 0.016564444348951456, "reward_facing": 0.0, "reward_error_reduction": 0.0, "reward_velocity_match": 0.0, "reward_direction_bonus": 0.0, "reward_excess_penalty": 0.0, "reward_smoothness_penalty": 0.0, "reward_tracking_bonus": 0.0, "reward_alive_bonus": 0.0, "target_pattern": "", "target_speed": 0.0}
{"timesteps": 71600, "episode": 34, "episode_length": 6108, "total_reward": -51.78355928485371, "terminated": false, "truncated": true, "mean_yaw_error": 1.4468430101169998, "max_yaw_error": 3.141033780265888, "min_yaw_error": 0.0005140971824968094, "std_yaw_error": 0.8096826409868763, "time_on_target": 0.03847413228552718, "time_close": 0.12622789783889982, "mean_action": -0.08090088865597755, "std_action": 1.037163258045273, "mean_action_change": 1.1606845041742755, "max_action": 3.832948923110962, "action_reversals": 2991, "mean_roll": -0.05239574977853571, "mean_pitch": -0.0397499649322848, "max_tilt": 0.9063620615597353, "mean_altitude_error": 0.025259153764456702, "reward_facing": 0.0, "reward_error_reduction": 0.0, "reward_velocity_match": 0.0, "reward_direction_bonus": 0.0, "reward_excess_penalty": 0.0, "reward_smoothness_penalty": 0.0, "reward_tracking_bonus": 0.0, "reward_alive_bonus": 0.0, "target_pattern": "", "target_speed": 0.0}
{"timesteps": 74544, "episode": 35, "episode_length": 2943, "total_reward": -38.02175850655044, "terminated": false, "truncated": true, "mean_yaw_error": 1.7994731928932528, "max_yaw_error": 3.141318769762441, "min_yaw_error": 0.0005663649658094403, "std_yaw_error": 0.8944210773371837, "time_on_target": 0.0163098878695209, "time_close": 0.05742439687393816, "mean_action": -0.09005726185477599, "std_action": 1.0060850712287857, "mean_action_change": 1.141352331208826, "max_action": 3.2778780460357666, "action_reversals": 1471, "mean_roll": 0.02048722998403008, "mean_pitch": -0.033228145454850956, "max_tilt": 1.221255382249728, "mean_altitude_error": 0.1267081012134873, "reward_facing": 0.0, "reward_error_reduction": 0.0, "reward_velocity_match": 0.0, "reward_direction_bonus": 0.0, "reward_excess_penalty": 0.0, "reward_smoothness_penalty": 0.0, "reward_tracking_bonus": 0.0, "reward_alive_bonus": 0.0, "target_pattern": "", "target_speed": 0.0}
{"timesteps": 75320, "episode": 36, "episode_length": 772, "total_reward": -10.256782721968193, "terminated": true, "truncated": false, "mean_yaw_error": 1.706056261323788, "max_yaw_error": 2.912778816655833, "min_yaw_error": 0.40095172913827437, "std_yaw_error": 0.7997381532214946, "time_on_target": 0.0, "time_close": 0.0, "mean_action": -0.14099298887089898, "std_action": 1.0134865850799593, "mean_action_change": 1.1329751265816266, "max_action": 4.098442554473877, "action_reversals": 382, "mean_roll": 1.3527570777986515, "mean_pitch": -0.5220814758483964, "max_tilt": 1.450007165140361, "mean_altitude_error": 0.1988209784320469, "reward_facing": 0.0, "reward_error_reduction": 0.0, "reward_velocity_match": 0.0, "reward_direction_bonus": 0.0, "reward_excess_penalty": 0.0, "reward_smoothness_penalty": 0.0, "reward_tracking_bonus": 0.0, "reward_alive_bonus": 0.0, "target_pattern": "", "target_speed": 0.0}
{"timesteps": 76704, "episode": 37, "episode_length": 1383, "total_reward": -15.892254416702599, "terminated": true, "truncated": false, "mean_yaw_error": 1.6566012026073056, "max_yaw_error": 2.984908699863726, "min_yaw_error": 0.001419960762495881, "std_yaw_error": 0.9387884955013497, "time_on_target": 0.06290672451193059, "time_close": 0.16124367317425886, "mean_action": -0.13022891151505325, "std_action": 1.0222170570787301, "mean_action_change": 1.204299140174357, "max_action": 3.2000553607940674, "action_reversals": 711, "mean_roll": 0.9576563986429719, "mean_pitch": 1.1677872981921402, "max_tilt": 1.5102426797308854, "mean_altitude_error": 0.179039887831158, "reward_facing": 0.0, "reward_error_reduction": 0.0, "reward_velocity_match": 0.0, "reward_direction_bonus": 0.0, "reward_excess_penalty": 0.0, "reward_smoothness_penalty": 0.0, "reward_tracking_bonus": 0.0, "reward_alive_bonus": 0.0, "target_pattern": "", "target_speed": 0.0}
{"timesteps": 80000, "episode": 38, "episode_length": 3295, "total_reward": -37.47419796159829, "terminated": false, "truncated": true, "mean_yaw_error": 1.64735681956567, "max_yaw_error": 3.1412880126659104, "min_yaw_error": 0.0443239612659425, "std_yaw_error": 0.900702681989845, "time_on_target": 0.007890743550834597, "time_close": 0.09044006069802732, "mean_action": -0.09135036765285436, "std_action": 1.0165854838151156, "mean_action_change": 1.1471177087763114, "max_action": 3.5213022232055664, "action_reversals": 1659, "mean_roll": 0.008065722281860256, "mean_pitch": 0.1099591112090027, "max_tilt": 0.8876191524146975, "mean_altitude_error": 0.05035462490543316, "reward_facing": 0.0, "reward_error_reduction": 0.0, "reward_velocity_match": 0.0, "reward_direction_bonus": 0.0, "reward_excess_penalty": 0.0, "reward_smoothness_penalty": 0.0, "reward_tracking_bonus": 0.0, "reward_alive_bonus": 0.0, "target_pattern": "", "target_speed": 0.0}
{"timesteps": 80000, "episode": 39, "episode_length": 4, "total_reward": -0.0667682837229222, "terminated": false, "truncated": true, "mean_yaw_error": 1.9980792880275386, "max_yaw_error": 3.0715713286720705, "min_yaw_error": 0.9206396471151008, "std_yaw_error": 0.8176148365052291, "time_on_target": 0.0, "time_close": 0.0, "mean_action": 0.20127053558826447, "std_action": 1.4970707765458255, "mean_action_change": 1.2545922597249348, "max_action": 2.344187021255493, "action_reversals": 1, "mean_roll": 0.24068026798788944, "mean_pitch": -0.5443560307063431, "max_tilt": 0.6125053321608717, "mean_altitude_error": 0.16425202612013695, "reward_facing": 0.0, "reward_error_reduction": 0.0, "reward_velocity_match": 0.0, "reward_direction_bonus": 0.0, "reward_excess_penalty": 0.0, "reward_smoothness_penalty": 0.0, "reward_tracking_bonus": 0.0, "reward_alive_bonus": 0.0, "target_pattern": "", "target_speed": 0.0}
{"timesteps": 80000, "episode": 40, "episode_length": 1, "total_reward": 0.010725541971623898, "terminated": false, "truncated": true, "mean_yaw_error": 0.12262809882647464, "max_yaw_error": 0.12262809882647464, "min_yaw_error": 0.12262809882647464, "std_yaw_error": 0.0, "time_on_target": 0.0, "time_close": 1.0, "mean_action": -1.6453217267990112, "std_action": 0.0, "mean_action_change": 0.0, "max_action": 1.6453217267990112, "action_reversals": 0, "mean_roll": 0.1816121041159557, "mean_pitch": 0.11480895500807692, "max_tilt": 0.2148582149033901, "mean_altitude_error": 0.07005909918456998, "reward_facing": 0.0, "reward_error_reduction": 0.0, "reward_velocity_match": 0.0, "reward_direction_bonus": 0.0, "reward_excess_penalty": 0.0, "reward_smoothness_penalty": 0.0, "reward_tracking_bonus": 0.0, "reward_alive_bonus": 0.0, "target_pattern": "", "target_speed": 0.0}
{"timesteps": 80432, "episode": 41, "episode_length": 431, "total_reward": -7.48811707141067, "terminated": true, "truncated": false, "mean_yaw_error": 2.0000129701275813, "max_yaw_error": 3.1413568387409043, "min_yaw_error": 0.4169434000315348, "std_yaw_error": 0.8114615446092466, "time_on_target": 0.0, "time_close": 0.0, "mean_action": -0.08322125301629374, "std_action": 1.0002709297867032, "mean_action_change": 1.1389162273947582, "max_action": 3.208446741104126, "action_reversals": 218, "mean_roll": -1.3505291966665967, "mean_pitch": 0.398575121535862, "max_tilt": 1.4081162020785962, "mean_altitude_error": 0.02200383324957608, "reward_facing": 0.0, "reward_error_reduction": 0.0, "reward_velocity_match": 0.0, "reward_direction_bonus": 0.0, "reward_excess_penalty": 0.0, "reward_smoothness_penalty": 0.0, "reward_tracking_bonus": 0.0, "reward_alive_bonus": 0.0, "target_pattern": "", "target_speed": 0.0}
{"timesteps": 81496, "episode": 42, "episode_length": 1063, "total_reward": -16.256376173580065, "terminated": false, "truncated": true, "mean_yaw_error": 1.989720286741933, "max_yaw_error": 3.140275153135904, "min_yaw_error": 0.8296761038611054, "std_yaw_error": 0.6501356372369751, "time_on_target": 0.0, "time_close": 0.0, "mean_action": -0.07838710479487368, "std_action": 1.015114468253125, "mean_action_change": 1.1524916246021255, "max_action": 4.0590667724609375, "action_reversals": 528, "mean_roll": 0.29381564759526874, "mean_pitch": 0.5577388313960646, "max_tilt": 0.8745162200984337, "mean_altitude_error": 0.1071185901710804, "reward_facing": 0.0, "reward_error_reduction": 0.0, "reward_velocity_match": 0.0, "reward_direction_bonus": 0.0, "reward_excess_penalty": 0.0, "reward_smoothness_penalty": 0.0, "reward_tracking_bonus": 0.0, "reward_alive_bonus": 0.0, "target_pattern": "", "target_speed": 0.0}
{"timesteps": 84632, "episode": 43, "episode_length": 3140, "total_reward": -23.010251513475623, "terminated": true, "truncated": false, "mean_yaw_error": 1.3788304526913224, "max_yaw_error": 3.1405263082178854, "min_yaw_error": 0.0002686223073149038, "std_yaw_error": 1.073730011250231, "time_on_target": 0.059554140127388536, "time_close": 0.21114649681528663, "mean_action": -0.05377828563907581, "std_action": 1.0180764337098818, "mean_action_change": 1.1560148191627906, "max_action": 4.109920501708984, "action_reversals": 1563, "mean_roll": 0.955661591269382, "mean_pitch": 1.0236580395182053, "max_tilt": 1.4004159592413188, "mean_altitude_error": 0.0788609523794745, "reward_facing": 0.0, "reward_error_reduction": 0.0, "reward_velocity_match": 0.0, "reward_direction_bonus": 0.0, "reward_excess_penalty": 0.0, "reward_smoothness_penalty": 0.0, "reward_tracking_bonus": 0.0, "reward_alive_bonus": 0.0, "target_pattern": "", "target_speed": 0.0}
{"timesteps": 90544, "episode": 44, "episode_length": 5911, "total_reward": -28.125452587361863, "terminated": false, "truncated": true, "mean_yaw_error": 1.161354071714161, "max_yaw_error": 3.140081820639535, "min_yaw_error": 2.393922465387614e-05, "std_yaw_error": 0.8750234089367258, "time_on_target": 0.0837421756048046, "time_close": 0.2310945694467941, "mean_action": -0.046939922681255096, "std_action": 1.0273145719608838, "mean_action_change": 1.1575327970968423, "max_action": 3.535342216491699, "action_reversals": 2940, "mean_roll": 0.036397589066622826, "mean_pitch": 0.04790732302814723, "max_tilt": 0.7711743393378542, "mean_altitude_error": 0.046199081635103265, "reward_facing": 0.0, "reward_error_reduction": 0.0, "reward_velocity_match": 0.0, "reward_direction_bonus": 0.0, "reward_excess_penalty": 0.0, "reward_smoothness_penalty": 0.0, "reward_tracking_bonus": 0.0, "reward_alive_bonus": 0.0, "target_pattern": "", "target_speed": 0.0}
{"timesteps": 91320, "episode": 45, "episode_length": 772, "total_reward": -7.7707516979508, "terminated": false, "truncated": true, "mean_yaw_error": 1.4254681037024013, "max_yaw_error": 3.131701444256858, "min_yaw_error": 0.27525561094900924, "std_yaw_error": 0.7065120096275883, "time_on_target": 0.0, "time_close": 0.06217616580310881, "mean_action": -0.08953963008038507, "std_action": 1.0378839689864514, "mean_action_change": 1.2015524942780593, "max_action": 3.3063554763793945, "action_reversals": 400, "mean_roll": 0.18165821559630427, "mean_pitch": 0.19160465309814773, "max_tilt": 0.8042170108576339, "mean_altitude_error": 0.191630902010584, "reward_facing": 0.0, "reward_error_reduction": 0.0, "reward_velocity_match": 0.0, "reward_direction_bonus": 0.0, "reward_excess_penalty": 0.0, "reward_smoothness_penalty": 0.0, "reward_tracking_bonus": 0.0, "reward_alive_bonus": 0.0, "target_pattern": "", "target_speed": 0.0}
{"timesteps": 91640, "episode": 46, "episode_length": 322, "total_reward": -3.179242641077508, "terminated": true, "truncated": false, "mean_yaw_error": 1.219293718908302, "max_yaw_error": 2.5223786004596693, "min_yaw_error": 0.16544696445030624, "std_yaw_error": 0.6757121507132748, "time_on_target": 0.0, "time_close": 0.2484472049689441, "mean_action": -0.021694471611300056, "std_action": 1.0881112103514647, "mean_action_change": 1.1518041000721797, "max_action": 2.7609400749206543, "action_reversals": 145, "mean_roll": -0.6067598335129739, "mean_pitch": -1.3930697669022833, "max_tilt": 1.5194738796773948, "mean_altitude_error": 0.26493137914534265, "reward_facing": 0.0, "reward_error_reduction": 0.0, "reward_velocity_match": 0.0, "reward_direction_bonus": 0.0, "reward_excess_penalty": 0.0, "reward_smoothness_penalty": 0.0, "reward_tracking_bonus": 0.0, "reward_alive_bonus": 0.0, "target_pattern": "", "target_speed": 0.0}
{"timesteps": 92704, "episode": 47, "episode_length": 1061, "total_reward": -6.546497133411776, "terminated": false, "truncated": true, "mean_yaw_error": 1.2549124040864283, "max_yaw_error": 3.1406001583645575, "min_yaw_error": 6.972908409208014e-05, "std_yaw_error": 0.8340570991718802, "time_on_target": 0.04524033930254477, "time_close": 0.13666352497643733, "mean_action": -0.16386654279936494, "std_action": 1.0320754317600855, "mean_action_change": 1.1689162131890936, "max_action": 3.259078025817871, "action_reversals": 517, "mean_roll": 0.012343133674392397, "mean_pitch": 0.0055117535783934385, "max_tilt": 0.5420420545772382, "mean_altitude_error": 0.10819648690631663, "reward_facing": 0.0, "reward_error_reduction": 0.0, "reward_velocity_match": 0.0, "reward_direction_bonus": 0.0, "reward_excess_penalty": 0.0, "reward_smoothness_penalty": 0.0, "reward_tracking_bonus": 0.0, "reward_alive_bonus": 0.0, "target_pattern": "", "target_speed": 0.0}
{"timesteps": 96000, "episode": 48, "episode_length": 3295, "total_reward": -25.100863921336895, "terminated": false, "truncated": true, "mean_yaw_error": 1.3243408697447916, "max_yaw_error": 3.139689395447525, "min_yaw_error": 6.536043938432528e-05, "std_yaw_error": 0.737906633105381, "time_on_target": 0.019423368740515933, "time_close": 0.06555386949924127, "mean_action": -0.08798576863242344, "std_action": 1.014523079400707, "mean_action_change": 1.1363439850337265, "max_action": 4.2503581047058105, "action_reversals": 1641, "mean_roll": -0.01698332024157513, "mean_pitch": -0.1364277702897618, "max_tilt": 0.7968133581893708, "mean_altitude_error": 0.05459585927607392, "reward_facing": 0.0, "reward_error_reduction": 0.0, "reward_velocity_match": 0.0, "reward_direction_bonus": 0.0, "reward_excess_penalty": 0.0, "reward_smoothness_penalty": 0.0, "reward_tracking_bonus": 0.0, "reward_alive_bonus": 0.0, "target_pattern": "", "target_speed": 0.0}
{"timesteps": 96000, "episode": 49, "episode_length": 5, "total_reward": -0.022925572557142004, "terminated": false, "truncated": true, "mean_yaw_error": 1.2084398426918772, "max_yaw_error": 2.8560780113585933, "min_yaw_error": 0.13245943858201012, "std_yaw_error": 1.0032673425438945, "time_on_target": 0.0, "time_close": 0.2, "mean_action": 0.09990241527557372, "std_action": 0.9499812652604631, "mean_action_change": 1.2265469878911972, "max_action": 1.8878239393234253, "action_reversals": 2, "mean_roll": 0.025681215312561765, "mean_pitch": -0.024633231550164038, "max_tilt": 0.3062488948390015, "mean_altitude_error": 0.02409930664484621, "reward_facing": 0.0, "reward_error_reduction": 0.0, "reward_velocity_match": 0.0, "reward_direction_bonus": 0.0, "reward_excess_penalty": 0.0, "reward_smoothness_penalty": 0.0, "reward_tracking_bonus": 0.0, "reward_alive_bonus": 0.0, "target_pattern": "", "target_speed": 0.0}
{"timesteps": 97496, "episode": 50, "episode_length": 1494, "total_reward": -14.886433051427957, "terminated": false, "truncated": true, "mean_yaw_error": 1.4907907774248197, "max_yaw_error": 3.1411586560671436, "min_yaw_error": 0.12177242285583324, "std_yaw_error": 0.9106787197325392, "time_on_target": 0.0, "time_close": 0.12115127175368139, "mean_action": -0.09225679026141144, "std_action": 1.0297103040654159, "mean_action_change": 1.1698899080893255, "max_action": 3.5834784507751465, "action_reversals": 751, "mean_roll": -0.08658271381767484, "mean_pitch": 0.2552911151418778, "max_tilt": 0.6957450787422327, "mean_altitude_error": 0.013869914024787952, "reward_facing": 0.0, "reward_error_reduction": 0.0, "reward_velocity_match": 0.0, "reward_direction_bonus": 0.0, "reward_excess_penalty": 0.0, "reward_smoothness_penalty": 0.0, "reward_tracking_bonus": 0.0, "reward_alive_bonus": 0.0, "target_pattern": "", "target_speed": 0.0}
{"timesteps": 100632, "episode": 51, "episode_length": 3140, "total_reward": -38.64118957819937, "terminated": false, "truncated": true, "mean_yaw_error": 1.850067174344143, "max_yaw_error": 3.1415751276211212, "min_yaw_error": 0.0021111981295702507, "std_yaw_error": 1.0609727627560457, "time_on_target": 0.031210191082802548, "time_close": 0.11178343949044586, "mean_action": -0.08377327496292675, "std_action": 1.0388183172722651, "mean_action_change": 1.1821768778741513, "max_action": 3.6227643489837646, "action_reversals": 1587, "mean_roll": -0.020367943038718448, "mean_pitch": -0.00948714038490383, "max_tilt": 0.9834036890467941, "mean_altitude_error": 0.16674610473930151, "reward_facing": 0.0, "reward_error_reduction": 0.0, "reward_velocity_match": 0.0, "reward_direction_bonus": 0.0, "reward_excess_penalty": 0.0, "reward_smoothness_penalty": 0.0, "reward_tracking_bonus": 0.0, "reward_alive_bonus": 0.0, "target_pattern": "", "target_speed": 0.0}
{"timesteps": 101112, "episode": 52, "episode_length": 477, "total_reward": -5.358952262380626, "terminated": true, "truncated": false, "mean_yaw_error": 1.8088295460875707, "max_yaw_error": 3.1415644505095455, "min_yaw_error": 0.001608772514310201, "std_yaw_error": 1.2321615127187773, "time_on_target": 0.16142557651991615, "time_close": 0.24947589098532494, "mean_action": -0.04683971039529117, "std_action": 0.9961038402536015, "mean_action_change": 1.1341715764583034, "max_action": 2.977851629257202, "action_reversals": 240, "mean_roll": 0.9278838564286471, "mean_pitch": 1.1424370214307547, "max_tilt": 1.4717781079213241, "mean_altitude_error": 0.24793185631694728, "reward_facing": 0.0, "reward_error_reduction": 0.0, "reward_velocity_match": 0.0, "reward_direction_bonus": 0.0, "reward_excess_penalty": 0.0, "reward_smoothness_penalty": 0.0, "reward_tracking_bonus": 0.0, "reward_alive_bonus": 0.0, "target_pattern": "", "target_speed": 0.0}
{"timesteps": 106544, "episode": 53, "episode_length": 5434, "total_reward": -51.910565824356695, "terminated": false, "truncated": true, "mean_yaw_error": 1.526385936894373, "max_yaw_error": 3.140782827421619, "min_yaw_error": 0.0026149376947726486, "std_yaw_error": 0.8595422555527841, "time_on_target": 0.02521163047478837, "time_close": 0.09072506440927494, "mean_action": -0.05988313972322359, "std_action": 1.0453810163594117, "mean_action_change": 1.1818141488014853, "max_action": 3.730264663696289, "action_reversals": 2687, "mean_roll": -0.29794946603184586, "mean_pitch": -0.016159274463052126, "max_tilt": 1.006364548475214, "mean_altitude_error": 0.06319835486790384, "reward_facing": 0.0, "reward_error_reduction": 0.0, "reward_velocity_match": 0.0, "reward_direction_bonus": 0.0, "reward_excess_penalty": 0.0, "reward_smoothness_penalty": 0.0, "reward_tracking_bonus": 0.0, "reward_alive_bonus": 0.0, "target_pattern": "", "target_speed": 0.0}
{"timesteps": 107320, "episode": 54, "episode_length": 772, "total_reward": -6.9785196767770685, "terminated": false, "truncated": true, "mean_yaw_error": 1.291012897375376, "max_yaw_error": 2.201195263775941, "min_yaw_error": 0.00019700310522891294, "std_yaw_error": 0.6188016108219221, "time_on_target": 0.029792746113989636, "time_close": 0.13082901554404144, "mean_action": -0.08832131750843068, "std_action": 1.0081105528990975, "mean_action_change": 1.1468560025772387, "max_action": 3.608543872833252, "action_reversals": 388, "mean_roll": 0.0009200656810568236, "mean_pitch": -0.03328717161045209, "max_tilt": 0.8617825768729414, "mean_altitude_error": 0.030673289137171635, "reward_facing": 0.0, "reward_error_reduction": 0.0, "reward_velocity_match": 0.0, "reward_direction_bonus": 0.0, "reward_excess_penalty": 0.0, "reward_smoothness_penalty": 0.0, "reward_tracking_bonus": 0.0, "reward_alive_bonus": 0.0, "target_pattern": "", "target_speed": 0.0}
{"timesteps": 108704, "episode": 55, "episode_length": 1383, "total_reward": -12.438788034779918, "terminated": false, "truncated": true, "mean_yaw_error": 1.3930404176951108, "max_yaw_error": 3.0854199568089453, "min_yaw_error": 0.0008535556806210886, "std_yaw_error": 0.7932485787953283, "time_on_target": 0.03470715835140998, "time_close": 0.06290672451193059, "mean_action": -0.0846323614861932, "std_action": 0.9897680508705857, "mean_action_change": 1.1201811312022585, "max_action": 3.251018762588501, "action_reversals": 689, "mean_roll": 0.05788146265074179, "mean_pitch": 0.4722677822919286, "max_tilt": 1.2421943561825088, "mean_altitude_error": 0.14927429089908315, "reward_facing": 0.0, "reward_error_reduction": 0.0, "reward_velocity_match": 0.0, "reward_direction_bonus": 0.0, "reward_excess_penalty": 0.0, "reward_smoothness_penalty": 0.0, "reward_tracking_bonus": 0.0, "reward_alive_bonus": 0.0, "target_pattern": "", "target_speed": 0.0}
{"timesteps": 112000, "episode": 56, "episode_length": 3295, "total_reward": -20.494011935453045, "terminated": false, "truncated": true, "mean_yaw_error": 1.2774828709570674, "max_yaw_error": 3.141526287320813, "min_yaw_error": 0.0002277768268494409, "std_yaw_error": 0.9642103202333375, "time_on_target": 0.042488619119878605, "time_close": 0.1738998482549317, "mean_action": -0.0053089510655095614, "std_action": 1.0381605464654087, "mean_action_change": 1.1761942953323696, "max_action": 3.9249584674835205, "action_reversals": 1679, "mean_roll": -0.06643920827467409, "mean_pitch": -0.02736006832497175, "max_tilt": 1.0530556165826475, "mean_altitude_error": 0.11825173094826008, "reward_facing": 0.0, "reward_error_reduction": 0.0, "reward_velocity_match": 0.0, "reward_direction_bonus": 0.0, "reward_excess_penalty": 0.0, "reward_smoothness_penalty": 0.0, "reward_tracking_bonus": 0.0, "reward_alive_bonus": 0.0, "target_pattern": "", "target_speed": 0.0}
{"timesteps": 112000, "episode": 57, "episode_length": 5, "total_reward": -0.05680564953945577, "terminated": false, "truncated": true, "mean_yaw_error": 1.4938523082178405, "max_yaw_error": 2.2476451054880635, "min_yaw_error": 0.9314493479697993, "std_yaw_error": 0.4740423863857516, "time_on_target": 0.0, "time_close": 0.0, "mean_action": -0.6657188177108765, "std_action": 0.6708100158705179, "mean_action_change": 0.5526858568191528, "max_action": 1.2760796546936035, "action_reversals": 1, "mean_roll": -0.2408233579317075, "mean_pitch": -0.2561795057295708, "max_tilt": 0.35160180443415034, "mean_altitude_error": 0.0301465121270428, "reward_facing": 0.0, "reward_error_reduction": 0.0, "reward_velocity_match": 0.0, "reward_direction_bonus": 0.0, "reward_excess_penalty": 0.0, "reward_smoothness_penalty": 0.0, "reward_tracking_bonus": 0.0, "reward_alive_bonus": 0.0, "target_pattern": "", "target_speed": 0.0}
{"timesteps": 113496, "episode": 58, "episode_length": 1494, "total_reward": -20.037345897872, "terminated": false, "truncated": true, "mean_yaw_error": 1.7544870352936577, "max_yaw_error": 3.0061487114251824, "min_yaw_error": 0.9563445702919386, "std_yaw_error": 0.48989342639019856, "time_on_target": 0.0, "time_close": 0.0, "mean_action": -0.01750713486319166, "std_action": 1.0493683212737543, "mean_action_change": 1.1918067515984287, "max_action": 4.4954447746276855, "action_reversals": 742, "mean_roll": -0.1791490304858317, "mean_pitch": 0.08197882931506198, "max_tilt": 0.9040615347710115, "mean_altitude_error": 0.05310990081036115, "reward_facing": 0.0, "reward_error_reduction": 0.0, "reward_velocity_match": 0.0, "reward_direction_bonus": 0.0, "reward_excess_penalty": 0.0, "reward_smoothness_penalty": 0.0, "reward_tracking_bonus": 0.0, "reward_alive_bonus": 0.0, "target_pattern": "", "target_speed": 0.0}
{"timesteps": 116632, "episode": 59, "episode_length": 3140, "total_reward": -50.52160772169009, "terminated": false, "truncated": true, "mean_yaw_error": 2.0222241796900415, "max_yaw_error": 3.13898743896173, "min_yaw_error": 1.0860072388905526, "std_yaw_error": 0.48824620399228535, "time_on_target": 0.0, "time_close": 0.0, "mean_action": 0.044696704861796964, "std_action": 1.0378114826722011, "mean_action_change": 1.1533026248928695, "max_action": 3.2667648792266846, "action_reversals": 1529, "mean_roll": 0.10839204201932481, "mean_pitch": 0.3093304905555726, "max_tilt": 0.9726155339458566, "mean_altitude_error": 0.06667690739524283, "reward_facing": 0.0, "reward_error_reduction": 0.0, "reward_velocity_match": 0.0, "reward_direction_bonus": 0.0, "reward_excess_penalty": 0.0, "reward_smoothness_penalty": 0.0, "reward_tracking_bonus": 0.0, "reward_alive_bonus": 0.0, "target_pattern": "", "target_speed": 0.0}
{"timesteps": 117112, "episode": 60, "episode_length": 477, "total_reward": -7.61887084832415, "terminated": false, "truncated": true, "mean_yaw_error": 2.0509829090781055, "max_yaw_error": 3.0481565702581968, "min_yaw_error": 1.0241893439466254, "std_yaw_error": 0.6220654340398399, "time_on_target": 0.0, "time_close": 0.0, "mean_action": 0.04231338669590855, "std_action": 1.0972897687172656, "mean_action_change": 1.2221731707109373, "max_action": 3.277153730392456, "action_reversals": 230, "mean_roll": 0.125054714578119, "mean_pitch": -0.3079730346178706, "max_tilt": 0.5646037401222547, "mean_altitude_error": 0.01701434817131905, "reward_facing": 0.0, "reward_error_reduction": 0.0, "reward_velocity_match": 0.0, "reward_direction_bonus": 0.0, "reward_excess_penalty": 0.0, "reward_smoothness_penalty": 0.0, "reward_tracking_bonus": 0.0, "reward_alive_bonus": 0.0, "target_pattern": "", "target_speed": 0.0}
{"timesteps": 121544, "episode": 61, "episode_length": 4434, "total_reward": -53.67899778708329, "terminated": true, "truncated": false, "mean_yaw_error": 1.6962141212311337, "max_yaw_error": 3.1405920611712586, "min_yaw_error": 0.0007524627784351959, "std_yaw_error": 0.9623793351800863, "time_on_target": 0.014884979702300407, "time_close": 0.08728010825439783, "mean_action": -0.05044717639961931, "std_action": 1.0261689756369226, "mean_action_change": 1.1634445514243383, "max_action": 3.471318483352661, "action_reversals": 2235, "mean_roll": 1.3938462379318037, "mean_pitch": 0.3578981357129067, "max_tilt": 1.4390616423709641, "mean_altitude_error": 0.10117010173944954, "reward_facing": 0.0, "reward_error_reduction": 0.0, "reward_velocity_match": 0.0, "reward_direction_bonus": 0.0, "reward_excess_penalty": 0.0, "reward_smoothness_penalty": 0.0, "reward_tracking_bonus": 0.0, "reward_alive_bonus": 0.0, "target_pattern": "", "target_speed": 0.0}
{"timesteps": 123320, "episode": 62, "episode_length": 1772, "total_reward": -19.866733491729974, "terminated": false, "truncated": true, "mean_yaw_error": 1.540783152507107, "max_yaw_error": 2.7595786197723284, "min_yaw_error": 0.03948920537192399, "std_yaw_error": 0.6833494713842153, "time_on_target": 0.024266365688487584, "time_close": 0.09255079006772009, "mean_action": -0.09978510756949573, "std_action": 1.0633106730328261, "mean_action_change": 1.2177761224204204, "max_action": 3.644351005554199, "action_reversals": 920, "mean_roll": -0.02570866226467098, "mean_pitch": -0.019743132644766355, "max_tilt": 1.0078005774097945, "mean_altitude_error": 0.1773323929919526, "reward_facing": 0.0, "reward_error_reduction": 0.0, "reward_velocity_match": 0.0, "reward_direction_bonus": 0.0, "reward_excess_penalty": 0.0, "reward_smoothness_penalty": 0.0, "reward_tracking_bonus": 0.0, "reward_alive_bonus": 0.0, "target_pattern": "", "target_speed": 0.0}
{"timesteps": 123736, "episode": 63, "episode_length": 416, "total_reward": -4.817135244607925, "terminated": true, "truncated": false, "mean_yaw_error": 1.6486157534026755, "max_yaw_error": 3.1340967930073877, "min_yaw_error": 2.0262462449959067e-05, "std_yaw_error": 0.760975180911309, "time_on_target": 0.125, "time_close": 0.125, "mean_action": 0.03146587532515136, "std_action": 1.0278889994855998, "mean_action_change": 1.1512112036885986, "max_action": 3.1065564155578613, "action_reversals": 210, "mean_roll": -1.1797288730847877, "mean_pitch": 0.7909174947897061, "max_tilt": 1.4203206319540416, "mean_altitude_error": 0.17447346495970337, "reward_facing": 0.0, "reward_error_reduction": 0.0, "reward_velocity_match": 0.0, "reward_direction_bonus": 0.0, "reward_excess_penalty": 0.0, "reward_smoothness_penalty": 0.0, "reward_tracking_bonus": 0.0, "reward_alive_bonus": 0.0, "target_pattern": "", "target_speed": 0.0}
{"timesteps": 124248, "episode": 64, "episode_length": 512, "total_reward": -5.892164600081742, "terminated": true, "truncated": false, "mean_yaw_error": 1.5555675865198646, "max_yaw_error": 3.112045847491436, "min_yaw_error": 0.06441523821425721, "std_yaw_error": 0.7146559914101057, "time_on_target": 0.029296875, "time_close": 0.125, "mean_action": 0.007651215419173241, "std_action": 1.0537206972450912, "mean_action_change": 1.2016468864597687, "max_action": 3.865901231765747, "action_reversals": 260, "mean_roll": 1.1957019046722182, "mean_pitch": 0.7388952425526679, "max_tilt": 1.405585011411169, "mean_altitude_error": 0.17720338712463998, "reward_facing": 0.0, "reward_error_reduction": 0.0, "reward_velocity_match": 0.0, "reward_direction_bonus": 0.0, "reward_excess_penalty": 0.0, "reward_smoothness_penalty": 0.0, "reward_tracking_bonus": 0.0, "reward_alive_bonus": 0.0, "target_pattern": "", "target_speed": 0.0}
