{"timesteps": 16000, "episode": 1, "episode_length": 15993, "total_reward": -243.7601788762206, "terminated": false, "truncated": true, "mean_yaw_error": 1.6396825462968956, "max_yaw_error": 3.1414724231673703, "min_yaw_error": 0.0005633946800522026, "std_yaw_error": 0.9190234103559761, "time_on_target": 0.018383042581129244, "time_close": 0.10479584818358031, "mean_action": -0.0011723740857123293, "std_action": 1.0017193789293515, "mean_action_change": 1.1326487415652378, "max_action": 3.615003824234009, "action_reversals": 8061, "mean_roll": -0.15237104126475576, "mean_pitch": 0.09719992581541957, "max_tilt": 0.46918956457570943, "mean_altitude_error": 0.0018136628075017106, "reward_facing": 0.0, "reward_error_reduction": 0.0, "reward_velocity_match": 0.0, "reward_direction_bonus": 0.0, "reward_excess_penalty": 0.0, "reward_smoothness_penalty": 0.0, "reward_tracking_bonus": 0.0, "reward_alive_bonus": 0.0, "target_pattern": "", "target_speed": 0.0}
{"timesteps": 16000, "episode": 2, "episode_length": 1, "total_reward": -0.006487774662673473, "terminated": false, "truncated": true, "mean_yaw_error": 1.044513246402134, "max_yaw_error": 1.044513246402134, "min_yaw_error": 1.044513246402134, "std_yaw_error": 0.0, "time_on_target": 0.0, "time_close": 0.0, "mean_action": -1.0231995582580566, "std_action": 0.0, "mean_action_change": 0.0, "max_action": 1.0231995582580566, "action_reversals": 0, "mean_roll": -0.0022192879665351942, "mean_pitch": 0.0033441030989270603, "max_tilt": 0.004013510260938856, "mean_altitude_error": 0.0001303939761465589, "reward_facing": 0.0, "reward_error_reduction": 0.0, "reward_velocity_match": 0.0, "reward_direction_bonus": 0.0, "reward_excess_penalty": 0.0, "reward_smoothness_penalty": 0.0, "reward_tracking_bonus": 0.0, "reward_alive_bonus": 0.0, "target_pattern": "", "target_speed": 0.0}
{"timesteps": 16000, "episode": 3, "episode_length": 1, "total_reward": 0.015136727131903172, "terminated": false, "truncated": true, "mean_yaw_error": 0.08162854163762716, "max_yaw_error": 0.08162854163762716, "min_yaw_error": 0.08162854163762716, "std_yaw_error": 0.0, "time_on_target": 1.0, "time_close": 1.0, "mean_action": -0.07846419513225555, "std_action": 0.0, "mean_action_change": 0.0, "max_action": 0.07846419513225555, "action_reversals": 0, "mean_roll": -0.1553437427105564, "mean_pitch": 0.3228467530527177, "max_tilt": 0.35827601699807654, "mean_altitude_error": 0.004903654274129865, "reward_facing": 0.0, "reward_error_reduction": 0.0, "reward_velocity_match": 0.0, "reward_direction_bonus": 0.0, "reward_excess_penalty": 0.0, "reward_smoothness_penalty": 0.0, "reward_tracking_bonus": 0.0, "reward_alive_bonus": 0.0, "target_pattern": "", "target_speed": 0.0}
{"timesteps": 16000, "episode": 4, "episode_length": 1, "total_reward": -0.02475104108452797, "terminated": false, "truncated": true, "mean_yaw_error": 3.0955286631460437, "max_yaw_error": 3.0955286631460437, "min_yaw_error": 3.0955286631460437, "std_yaw_error": 0.0, "time_on_target": 0.0, "time_close": 0.0, "mean_action": -0.6323942542076111, "std_action": 0.0, "mean_action_change": 0.0, "max_action": 0.6323942542076111, "action_reversals": 0, "mean_roll": 0.04018758373772302, "mean_pitch": 0.030678545954761653, "max_tilt": 0.050559025589650385, "mean_altitude_error": 0.00010014540016978213, "reward_facing": 0.0, "reward_error_reduction": 0.0, "reward_velocity_match": 0.0, "reward_direction_bonus": 0.0, "reward_excess_penalty": 0.0, "reward_smoothness_penalty": 0.0, "reward_tracking_bonus": 0.0, "reward_alive_bonus": 0.0, "target_pattern": "", "target_speed": 0.0}
{"timesteps": 16000, "episode": 5, "episode_length": 1, "total_reward": 8.916029764804989e-05, "terminated": false, "truncated": true, "mean_yaw_error": 0.5255155673787272, "max_yaw_error": 0.5255155673787272, "min_yaw_error": 0.5255155673787272, "std_yaw_error": 0.0, "time_on_target": 0.0, "time_close": 0.0, "mean_action": 0.35758671164512634, "std_action": 0.0, "mean_action_change": 0.0, "max_action": 0.35758671164512634, "action_reversals": 0, "mean_roll": -0.14044509581364142, "mean_pitch": -0.03225948926480766, "max_tilt": 0.14410239271340763, "mean_altitude_error": 0.0010772636658903378, "reward_facing": 0.0, "reward_error_reduction": 0.0, "reward_velocity_match": 0.0, "reward_direction_bonus": 0.0, "reward_excess_penalty": 0.0, "reward_smoothness_penalty": 0.0, "reward_tracking_bonus": 0.0, "reward_alive_bonus": 0.0, "target_pattern": "", "target_speed": 0.0}
{"timesteps": 16000, "episode": 6, "episode_length": 1, "total_reward": 0.0010207900777459145, "terminated": false, "truncated": true, "mean_yaw_error": 0.3663924617265703, "max_yaw_error": 0.3663924617265703, "min_yaw_error": 0.3663924617265703, "std_yaw_error": 0.0, "time_on_target": 0.0, "time_close": 0.0, "mean_action": -0.21827691793441772, "std_action": 0.0, "mean_action_change": 0.0, "max_action": 0.21827691793441772, "action_reversals": 0, "mean_roll": -0.07693254266116693, "mean_pitch": 0.1471092189262217, "max_tilt": 0.1660112598994276, "mean_altitude_error": 0.0005989890185301716, "reward_facing": 0.0, "reward_error_reduction": 0.0, "reward_velocity_match": 0.0, "reward_direction_bonus": 0.0, "reward_excess_penalty": 0.0, "reward_smoothness_penalty": 0.0, "reward_tracking_bonus": 0.0, "reward_alive_bonus": 0.0, "target_pattern": "", "target_speed": 0.0}
{"timesteps": 16000, "episode": 7, "episode_length": 1, "total_reward": -0.019548917189240456, "terminated": false, "truncated": true, "mean_yaw_error": 2.1193514930998445, "max_yaw_error": 2.1193514930998445, "min_yaw_error": 2.1193514930998445, "std_yaw_error": 0.0, "time_on_target": 0.0, "time_close": 0.0, "mean_action": 0.3594038784503937, "std_action": 0.0, "mean_action_change": 0.0, "max_action": 0.3594038784503937, "action_reversals": 0, "mean_roll": 0.04626036976268383, "mean_pitch": -0.016747240213063053, "max_tilt": 0.04919849454337265, "mean_altitude_error": 0.0002843929605560458, "reward_facing": 0.0, "reward_error_reduction": 0.0, "reward_velocity_match": 0.0, "reward_direction_bonus": 0.0, "reward_excess_penalty": 0.0, "reward_smoothness_penalty": 0.0, "reward_tracking_bonus": 0.0, "reward_alive_bonus": 0.0, "target_pattern": "", "target_speed": 0.0}
{"timesteps": 16000, "episode": 8, "episode_length": 1, "total_reward": -0.0193751510232687, "terminated": false, "truncated": true, "mean_yaw_error": 2.123228566472177, "max_yaw_error": 2.123228566472177, "min_yaw_error": 2.123228566472177, "std_yaw_error": 0.0, "time_on_target": 0.0, "time_close": 0.0, "mean_action": 0.4851106107234955, "std_action": 0.0, "mean_action_change": 0.0, "max_action": 0.4851106107234955, "action_reversals": 0, "mean_roll": -0.011853960841453614, "mean_pitch": -0.005619282936056389, "max_tilt": 0.013118411807309991, "mean_altitude_error": 0.00012870352015847963, "reward_facing": 0.0, "reward_error_reduction": 0.0, "reward_velocity_match": 0.0, "reward_direction_bonus": 0.0, "reward_excess_penalty": 0.0, "reward_smoothness_penalty": 0.0, "reward_tracking_bonus": 0.0, "reward_alive_bonus": 0.0, "target_pattern": "", "target_speed": 0.0}
{"timesteps": 32000, "episode": 9, "episode_length": 15993, "total_reward": -100.67389812530593, "terminated": false, "truncated": true, "mean_yaw_error": 1.2596762838125577, "max_yaw_error": 3.1406872199813707, "min_yaw_error": 0.00014964324172619776, "std_yaw_error": 0.8394960630281386, "time_on_target": 0.04233101982117176, "time_close": 0.14806477834052398, "mean_action": -0.038391466855713735, "std_action": 1.0144160031816858, "mean_action_change": 1.1437720441313721, "max_action": 4.181314945220947, "action_reversals": 8032, "mean_roll": 0.11078464058913079, "mean_pitch": -0.09688820791854091, "max_tilt": 0.5716678901705942, "mean_altitude_error": 0.0020506195601930634, "reward_facing": 0.0, "reward_error_reduction": 0.0, "reward_velocity_match": 0.0, "reward_direction_bonus": 0.0, "reward_excess_penalty": 0.0, "reward_smoothness_penalty": 0.0, "reward_tracking_bonus": 0.0, "reward_alive_bonus": 0.0, "target_pattern": "", "target_speed": 0.0}
{"timesteps": 32000, "episode": 10, "episode_length": 1, "total_reward": -0.02337661199271679, "terminated": false, "truncated": true, "mean_yaw_error": 2.9712400270244643, "max_yaw_error": 2.9712400270244643, "min_yaw_error": 2.9712400270244643, "std_yaw_error": 0.0, "time_on_target": 0.0, "time_close": 0.0, "mean_action": 0.017618834972381592, "std_action": 0.0, "mean_action_change": 0.0, "max_action": 0.017618834972381592, "action_reversals": 0, "mean_roll": 0.10517106378419366, "mean_pitch": -0.09233657827016006, "max_tilt": 0.13995355066642765, "mean_altitude_error": 9.490652472843308e-05, "reward_facing": 0.0, "reward_error_reduction": 0.0, "reward_velocity_match": 0.0, "reward_direction_bonus": 0.0, "reward_excess_penalty": 0.0, "reward_smoothness_penalty": 0.0, "reward_tracking_bonus": 0.0, "reward_alive_bonus": 0.0, "target_pattern": "", "target_speed": 0.0}
{"timesteps": 32000, "episode": 11, "episode_length": 1, "total_reward": 0.02254197560250759, "terminated": false, "truncated": true, "mean_yaw_error": 0.013786050101167409, "max_yaw_error": 0.013786050101167409, "min_yaw_error": 0.013786050101167409, "std_yaw_error": 0.0, "time_on_target": 1.0, "time_close": 1.0, "mean_action": -1.547158122062683, "std_action": 0.0, "mean_action_change": 0.0, "max_action": 1.547158122062683, "action_reversals": 0, "mean_roll": -0.0754412071631268, "mean_pitch": 0.21225816165906652, "max_tilt": 0.22526629337101509, "mean_altitude_error": 0.0003856966604169898, "reward_facing": 0.0, "reward_error_reduction": 0.0, "reward_velocity_match": 0.0, "reward_direction_bonus": 0.0, "reward_excess_penalty": 0.0, "reward_smoothness_penalty": 0.0, "reward_tracking_bonus": 0.0, "reward_alive_bonus": 0.0, "target_pattern": "", "target_speed": 0.0}
{"timesteps": 32000, "episode": 12, "episode_length": 1, "total_reward": -0.0028138156048953533, "terminated": false, "truncated": true, "mean_yaw_error": 0.911269315044858, "max_yaw_error": 0.911269315044858, "min_yaw_error": 0.911269315044858, "std_yaw_error": 0.0, "time_on_target": 0.0, "time_close": 0.0, "mean_action": 1.064772605895996, "std_action": 0.0, "mean_action_change": 0.0, "max_action": 1.064772605895996, "action_reversals": 0, "mean_roll": 0.22972291032088948, "mean_pitch": 0.006867916212334824, "max_tilt": 0.229825550797554, "mean_altitude_error": 0.00033555728662548745, "reward_facing": 0.0, "reward_error_reduction": 0.0, "reward_velocity_match": 0.0, "reward_direction_bonus": 0.0, "reward_excess_penalty": 0.0, "reward_smoothness_penalty": 0.0, "reward_tracking_bonus": 0.0, "reward_alive_bonus": 0.0, "target_pattern": "", "target_speed": 0.0}
{"timesteps": 32000, "episode": 13, "episode_length": 1, "total_reward": -0.005830283276736736, "terminated": false, "truncated": true, "mean_yaw_error": 1.376506626141769, "max_yaw_error": 1.376506626141769, "min_yaw_error": 1.376506626141769, "std_yaw_error": 0.0, "time_on_target": 0.0, "time_close": 0.0, "mean_action": -0.4474989175796509, "std_action": 0.0, "mean_action_change": 0.0, "max_action": 0.4474989175796509, "action_reversals": 0, "mean_roll": 0.09460989711457533, "mean_pitch": 0.012587558571404376, "max_tilt": 0.09544359204692092, "mean_altitude_error": 0.0003005563778414322, "reward_facing": 0.0, "reward_error_reduction": 0.0, "reward_velocity_match": 0.0, "reward_direction_bonus": 0.0, "reward_excess_penalty": 0.0, "reward_smoothness_penalty": 0.0, "reward_tracking_bonus": 0.0, "reward_alive_bonus": 0.0, "target_pattern": "", "target_speed": 0.0}
{"timesteps": 32000, "episode": 14, "episode_length": 1, "total_reward": -0.02155170403420925, "terminated": false, "truncated": true, "mean_yaw_error": 2.488092065146475, "max_yaw_error": 2.488092065146475, "min_yaw_error": 2.488092065146475, "std_yaw_error": 0.0, "time_on_target": 0.0, "time_close": 0.0, "mean_action": 0.03511926904320717, "std_action": 0.0, "mean_action_change": 0.0, "max_action": 0.03511926904320717, "action_reversals": 0, "mean_roll": 0.2615851568147697, "mean_pitch": 0.2548746132390873, "max_tilt": 0.36522303150209734, "mean_altitude_error": 0.0021380189096000812, "reward_facing": 0.0, "reward_error_reduction": 0.0, "reward_velocity_match": 0.0, "reward_direction_bonus": 0.0, "reward_excess_penalty": 0.0, "reward_smoothness_penalty": 0.0, "reward_tracking_bonus": 0.0, "reward_alive_bonus": 0.0, "target_pattern": "", "target_speed": 0.0}
{"timesteps": 32000, "episode": 15, "episode_length": 1, "total_reward": -0.017116937786340714, "terminated": false, "truncated": true, "mean_yaw_error": 1.8252934023750689, "max_yaw_error": 1.8252934023750689, "min_yaw_error": 1.8252934023750689, "std_yaw_error": 0.0, "time_on_target": 0.0, "time_close": 0.0, "mean_action": -0.052199073135852814, "std_action": 0.0, "mean_action_change": 0.0, "max_action": 0.052199073135852814, "action_reversals": 0, "mean_roll": -0.11636125113248347, "mean_pitch": 0.06289866906336403, "max_tilt": 0.1322731391290744, "mean_altitude_error": 0.0005063388542000391, "reward_facing": 0.0, "reward_error_reduction": 0.0, "reward_velocity_match": 0.0, "reward_direction_bonus": 0.0, "reward_excess_penalty": 0.0, "reward_smoothness_penalty": 0.0, "reward_tracking_bonus": 0.0, "reward_alive_bonus": 0.0, "target_pattern": "", "target_speed": 0.0}
{"timesteps": 32000, "episode": 16, "episode_length": 1, "total_reward": -0.006036863662302494, "terminated": false, "truncated": true, "mean_yaw_error": 1.212880587004167, "max_yaw_error": 1.212880587004167, "min_yaw_error": 1.212880587004167, "std_yaw_error": 0.0, "time_on_target": 0.0, "time_close": 0.0, "mean_action": -0.9116879105567932, "std_action": 0.0, "mean_action_change": 0.0, "max_action": 0.9116879105567932, "action_reversals": 0, "mean_roll": 0.011735214375480882, "mean_pitch": -0.013846484630116791, "max_tilt": 0.018150492914809604, "mean_altitude_error": 0.0003414895177293875, "reward_facing": 0.0, "reward_error_reduction": 0.0, "reward_velocity_match": 0.0, "reward_direction_bonus": 0.0, "reward_excess_penalty": 0.0, "reward_smoothness_penalty": 0.0, "reward_tracking_bonus": 0.0, "reward_alive_bonus": 0.0, "target_pattern": "", "target_speed": 0.0}
{"timesteps": 48000, "episode": 17, "episode_length": 15993, "total_reward": -165.6675119054407, "terminated": false, "truncated": true, "mean_yaw_error": 1.5678434101677103, "max_yaw_error": 3.141551661675825, "min_yaw_error": 0.00022775122389912756, "std_yaw_error": 0.8843279421409789, "time_on_target": 0.026449071468767585, "time_close": 0.0961045457387607, "mean_action": -0.06348071710257755, "std_action": 1.0276180388677254, "mean_action_change": 1.1657525563045703, "max_action": 4.364375114440918, "action_reversals": 8026, "mean_roll": -0.37850424997655824, "mean_pitch": -0.03188241660406985, "max_tilt": 0.6418525634563024, "mean_altitude_error": 0.0024241853687717164, "reward_facing": 0.0, "reward_error_reduction": 0.0, "reward_velocity_match": 0.0, "reward_direction_bonus": 0.0, "reward_excess_penalty": 0.0, "reward_smoothness_penalty": 0.0, "reward_tracking_bonus": 0.0, "reward_alive_bonus": 0.0, "target_pattern": "", "target_speed": 0.0}
{"timesteps": 48000, "episode": 18, "episode_length": 1, "total_reward": -0.0003270532179158181, "terminated": false, "truncated": true, "mean_yaw_error": 0.6716138364016632, "max_yaw_error": 0.6716138364016632, "min_yaw_error": 0.6716138364016632, "std_yaw_error": 0.0, "time_on_target": 0.0, "time_close": 0.0, "mean_action": 0.5717476606369019, "std_action": 0.0, "mean_action_change": 0.0, "max_action": 0.5717476606369019, "action_reversals": 0, "mean_roll": 0.3824993754532345, "mean_pitch": -0.14647138244875826, "max_tilt": 0.4095847141905626, "mean_altitude_error": 0.0017771673949137368, "reward_facing": 0.0, "reward_error_reduction": 0.0, "reward_velocity_match": 0.0, "reward_direction_bonus": 0.0, "reward_excess_penalty": 0.0, "reward_smoothness_penalty": 0.0, "reward_tracking_bonus": 0.0, "reward_alive_bonus": 0.0, "target_pattern": "", "target_speed": 0.0}
{"timesteps": 48000, "episode": 19, "episode_length": 1, "total_reward": -0.019004929810762405, "terminated": false, "truncated": true, "mean_yaw_error": 2.3347153136049212, "max_yaw_error": 2.3347153136049212, "min_yaw_error": 2.3347153136049212, "std_yaw_error": 0.0, "time_on_target": 0.0, "time_close": 0.0, "mean_action": 0.424665629863739, "std_action": 0.0, "mean_action_change": 0.0, "max_action": 0.424665629863739, "action_reversals": 0, "mean_roll": -0.31186826935154305, "mean_pitch": 0.23930736720800164, "max_tilt": 0.39310282805946833, "mean_altitude_error": 0.0009439767756311834, "reward_facing": 0.0, "reward_error_reduction": 0.0, "reward_velocity_match": 0.0, "reward_direction_bonus": 0.0, "reward_excess_penalty": 0.0, "reward_smoothness_penalty": 0.0, "reward_tracking_bonus": 0.0, "reward_alive_bonus": 0.0, "target_pattern": "", "target_speed": 0.0}
{"timesteps": 48000, "episode": 20, "episode_length": 1, "total_reward": -0.005017662420868874, "terminated": false, "truncated": true, "mean_yaw_error": 1.0652737040434546, "max_yaw_error": 1.0652737040434546, "min_yaw_error": 1.0652737040434546, "std_yaw_error": 0.0, "time_on_target": 0.0, "time_close": 0.0, "mean_action": -0.506754457950592, "std_action": 0.0, "mean_action_change": 0.0, "max_action": 0.506754457950592, "action_reversals": 0, "mean_roll": 0.09410201911553254, "mean_pitch": -0.2869708923958896, "max_tilt": 0.3020057666404953, "mean_altitude_error": 0.0015345761199607733, "reward_facing": 0.0, "reward_error_reduction": 0.0, "reward_velocity_match": 0.0, "reward_direction_bonus": 0.0, "reward_excess_penalty": 0.0, "reward_smoothness_penalty": 0.0, "reward_tracking_bonus": 0.0, "reward_alive_bonus": 0.0, "target_pattern": "", "target_speed": 0.0}
{"timesteps": 48000, "episode": 21, "episode_length": 1, "total_reward": -0.021754203364253044, "terminated": false, "truncated": true, "mean_yaw_error": 2.6844254029797017, "max_yaw_error": 2.6844254029797017, "min_yaw_error": 2.6844254029797017, "std_yaw_error": 0.0, "time_on_target": 0.0, "time_close": 0.0, "mean_action": 0.23131151497364044, "std_action": 0.0, "mean_action_change": 0.0, "max_action": 0.23131151497364044, "action_reversals": 0, "mean_roll": -0.016094812938031104, "mean_pitch": -0.02666887687641425, "max_tilt": 0.031149189353168665, "mean_altitude_error": 2.4299548968986784e-05, "reward_facing": 0.0, "reward_error_reduction": 0.0, "reward_velocity_match": 0.0, "reward_direction_bonus": 0.0, "reward_excess_penalty": 0.0, "reward_smoothness_penalty": 0.0, "reward_tracking_bonus": 0.0, "reward_alive_bonus": 0.0, "target_pattern": "", "target_speed": 0.0}
{"timesteps": 48000, "episode": 22, "episode_length": 1, "total_reward": -0.01639161817729473, "terminated": false, "truncated": true, "mean_yaw_error": 1.863763904730086, "max_yaw_error": 1.863763904730086, "min_yaw_error": 1.863763904730086, "std_yaw_error": 0.0, "time_on_target": 0.0, "time_close": 0.0, "mean_action": -0.33168554306030273, "std_action": 0.0, "mean_action_change": 0.0, "max_action": 0.33168554306030273, "action_reversals": 0, "mean_roll": 0.03484949462805968, "mean_pitch": -0.03371373917095129, "max_tilt": 0.048488178814202705, "mean_altitude_error": 4.6367441489558736e-05, "reward_facing": 0.0, "reward_error_reduction": 0.0, "reward_velocity_match": 0.0, "reward_direction_bonus": 0.0, "reward_excess_penalty": 0.0, "reward_smoothness_penalty": 0.0, "reward_tracking_bonus": 0.0, "reward_alive_bonus": 0.0, "target_pattern": "", "target_speed": 0.0}
{"timesteps": 48000, "episode": 23, "episode_length": 1, "total_reward": -0.016312209889292717, "terminated": false, "truncated": true, "mean_yaw_error": 1.7372874052384768, "max_yaw_error": 1.7372874052384768, "min_yaw_error": 1.7372874052384768, "std_yaw_error": 0.0, "time_on_target": 0.0, "time_close": 0.0, "mean_action": 0.9838190674781799, "std_action": 0.0, "mean_action_change": 0.0, "max_action": 0.9838190674781799, "action_reversals": 0, "mean_roll": 0.0016917669763039306, "mean_pitch": -0.005188183494640917, "max_tilt": 0.005457043473913048, "mean_altitude_error": 0.00037415555744124696, "reward_facing": 0.0, "reward_error_reduction": 0.0, "reward_velocity_match": 0.0, "reward_direction_bonus": 0.0, "reward_excess_penalty": 0.0, "reward_smoothness_penalty": 0.0, "reward_tracking_bonus": 0.0, "reward_alive_bonus": 0.0, "target_pattern": "", "target_speed": 0.0}
{"timesteps": 48000, "episode": 24, "episode_length": 1, "total_reward": -0.020373664796352386, "terminated": false, "truncated": true, "mean_yaw_error": 2.712800134764202, "max_yaw_error": 2.712800134764202, "min_yaw_error": 2.712800134764202, "std_yaw_error": 0.0, "time_on_target": 0.0, "time_close": 0.0, "mean_action": 0.27875226736068726, "std_action": 0.0, "mean_action_change": 0.0, "max_action": 0.27875226736068726, "action_reversals": 0, "mean_roll": 0.010104445184733184, "mean_pitch": -0.0480402172969156, "max_tilt": 0.049091366760624484, "mean_altitude_error": 0.00017490536387843036, "reward_facing": 0.0, "reward_error_reduction": 0.0, "reward_velocity_match": 0.0, "reward_direction_bonus": 0.0, "reward_excess_penalty": 0.0, "reward_smoothness_penalty": 0.0, "reward_tracking_bonus": 0.0, "reward_alive_bonus": 0.0, "target_pattern": "", "target_speed": 0.0}
{"timesteps": 64000, "episode": 25, "episode_length": 15993, "total_reward": -182.4958351192588, "terminated": false, "truncated": true, "mean_yaw_error": 1.6564919302030388, "max_yaw_error": 3.1407804539964754, "min_yaw_error": 0.00021172620167878316, "std_yaw_error": 0.8329372861840862, "time_on_target": 0.02619896204589508, "time_close": 0.0967923466516601, "mean_action": -0.06604125601608293, "std_action": 1.032469701872164, "mean_action_change": 1.1580937681515249, "max_action": 4.288173198699951, "action_reversals": 7917, "mean_roll": 0.012735254030437487, "mean_pitch": -0.28966683181195807, "max_tilt": 0.7370166527880386, "mean_altitude_error": 0.0029564122739006277, "reward_facing": 0.0, "reward_error_reduction": 0.0, "reward_velocity_match": 0.0, "reward_direction_bonus": 0.0, "reward_excess_penalty": 0.0, "reward_smoothness_penalty": 0.0, "reward_tracking_bonus": 0.0, "reward_alive_bonus": 0.0, "target_pattern": "", "target_speed": 0.0}
{"timesteps": 64000, "episode": 26, "episode_length": 1, "total_reward": -0.020445501431822777, "terminated": false, "truncated": true, "mean_yaw_error": 2.298643305161144, "max_yaw_error": 2.298643305161144, "min_yaw_error": 2.298643305161144, "std_yaw_error": 0.0, "time_on_target": 0.0, "time_close": 0.0, "mean_action": 0.6540440917015076, "std_action": 0.0, "mean_action_change": 0.0, "max_action": 0.6540440917015076, "action_reversals": 0, "mean_roll": -0.040955282096074866, "mean_pitch": 0.00377060862753337, "max_tilt": 0.04112848916494623, "mean_altitude_error": 0.0003921406594700194, "reward_facing": 0.0, "reward_error_reduction": 0.0, "reward_velocity_match": 0.0, "reward_direction_bonus": 0.0, "reward_excess_penalty": 0.0, "reward_smoothness_penalty": 0.0, "reward_tracking_bonus": 0.0, "reward_alive_bonus": 0.0, "target_pattern": "", "target_speed": 0.0}
{"timesteps": 64000, "episode": 27, "episode_length": 1, "total_reward": -0.021458696573972702, "terminated": false, "truncated": true, "mean_yaw_error": 2.734599651213697, "max_yaw_error": 2.734599651213697, "min_yaw_error": 2.734599651213697, "std_yaw_error": 0.0, "time_on_target": 0.0, "time_close": 0.0, "mean_action": 1.326569676399231, "std_action": 0.0, "mean_action_change": 0.0, "max_action": 1.326569676399231, "action_reversals": 0, "mean_roll": -0.12872586456635401, "mean_pitch": 0.0969008312106879, "max_tilt": 0.16112144269983913, "mean_altitude_error": 0.001946561197008867, "reward_facing": 0.0, "reward_error_reduction": 0.0, "reward_velocity_match": 0.0, "reward_direction_bonus": 0.0, "reward_excess_penalty": 0.0, "reward_smoothness_penalty": 0.0, "reward_tracking_bonus": 0.0, "reward_alive_bonus": 0.0, "target_pattern": "", "target_speed": 0.0}
{"timesteps": 64000, "episode": 28, "episode_length": 1, "total_reward": -0.005767099559307098, "terminated": false, "truncated": true, "mean_yaw_error": 1.3548989610466138, "max_yaw_error": 1.3548989610466138, "min_yaw_error": 1.3548989610466138, "std_yaw_error": 0.0, "time_on_target": 0.0, "time_close": 0.0, "mean_action": 0.7029478549957275, "std_action": 0.0, "mean_action_change": 0.0, "max_action": 0.7029478549957275, "action_reversals": 0, "mean_roll": 0.049856810520228056, "mean_pitch": -0.06208493062395327, "max_tilt": 0.07962562505771, "mean_altitude_error": 0.0002986564700406813, "reward_facing": 0.0, "reward_error_reduction": 0.0, "reward_velocity_match": 0.0, "reward_direction_bonus": 0.0, "reward_excess_penalty": 0.0, "reward_smoothness_penalty": 0.0, "reward_tracking_bonus": 0.0, "reward_alive_bonus": 0.0, "target_pattern": "", "target_speed": 0.0}
{"timesteps": 64000, "episode": 29, "episode_length": 1, "total_reward": -0.007095899898558855, "terminated": false, "truncated": true, "mean_yaw_error": 1.1683455690191187, "max_yaw_error": 1.1683455690191187, "min_yaw_error": 1.1683455690191187, "std_yaw_error": 0.0, "time_on_target": 0.0, "time_close": 0.0, "mean_action": -1.3203318119049072, "std_action": 0.0, "mean_action_change": 0.0, "max_action": 1.3203318119049072, "action_reversals": 0, "mean_roll": -0.04971343173149138, "mean_pitch": -0.08044327315634026, "max_tilt": 0.09456503312867408, "mean_altitude_error": 0.0004765701720736981, "reward_facing": 0.0, "reward_error_reduction": 0.0, "reward_velocity_match": 0.0, "reward_direction_bonus": 0.0, "reward_excess_penalty": 0.0, "reward_smoothness_penalty": 0.0, "reward_tracking_bonus": 0.0, "reward_alive_bonus": 0.0, "target_pattern": "", "target_speed": 0.0}
{"timesteps": 64000, "episode": 30, "episode_length": 1, "total_reward": -0.008191394619643688, "terminated": false, "truncated": true, "mean_yaw_error": 1.5606849846329673, "max_yaw_error": 1.5606849846329673, "min_yaw_error": 1.5606849846329673, "std_yaw_error": 0.0, "time_on_target": 0.0, "time_close": 0.0, "mean_action": 0.3679429888725281, "std_action": 0.0, "mean_action_change": 0.0, "max_action": 0.3679429888725281, "action_reversals": 0, "mean_roll": -0.13537832151827736, "mean_pitch": -0.17003793160658828, "max_tilt": 0.2173480805577838, "mean_altitude_error": 0.0010916929787893048, "reward_facing": 0.0, "reward_error_reduction": 0.0, "reward_velocity_match": 0.0, "reward_direction_bonus": 0.0, "reward_excess_penalty": 0.0, "reward_smoothness_penalty": 0.0, "reward_tracking_bonus": 0.0, "reward_alive_bonus": 0.0, "target_pattern": "", "target_speed": 0.0}
{"timesteps": 64000, "episode": 31, "episode_length": 1, "total_reward": -0.01757701113820076, "terminated": false, "truncated": true, "mean_yaw_error": 1.907613794533473, "max_yaw_error": 1.907613794533473, "min_yaw_error": 1.907613794533473, "std_yaw_error": 0.0, "time_on_target": 0.0, "time_close": 0.0, "mean_action": -0.681297779083252, "std_action": 0.0, "mean_action_change": 0.0, "max_action": 0.681297779083252, "action_reversals": 0, "mean_roll": 0.22044661158298812, "mean_pitch": -0.21554203710099076, "max_tilt": 0.30831003602877693, "mean_altitude_error": 0.0035975199169300254, "reward_facing": 0.0, "reward_error_reduction": 0.0, "reward_velocity_match": 0.0, "reward_direction_bonus": 0.0, "reward_excess_penalty": 0.0, "reward_smoothness_penalty": 0.0, "reward_tracking_bonus": 0.0, "reward_alive_bonus": 0.0, "target_pattern": "", "target_speed": 0.0}
{"timesteps": 64000, "episode": 32, "episode_length": 1, "total_reward": 0.005448861047625542, "terminated": false, "truncated": true, "mean_yaw_error": 0.3288507347688361, "max_yaw_error": 0.3288507347688361, "min_yaw_error": 0.3288507347688361, "std_yaw_error": 0.0, "time_on_target": 0.0, "time_close": 1.0, "mean_action": -0.8962823152542114, "std_action": 0.0, "mean_action_change": 0.0, "max_action": 0.8962823152542114, "action_reversals": 0, "mean_roll": -0.06786062403130909, "mean_pitch": 0.24679621836883125, "max_tilt": 0.2559559292047647, "mean_altitude_error": 0.00025411206323255886, "reward_facing": 0.0, "reward_error_reduction": 0.0, "reward_velocity_match": 0.0, "reward_direction_bonus": 0.0, "reward_excess_penalty": 0.0, "reward_smoothness_penalty": 0.0, "reward_tracking_bonus": 0.0, "reward_alive_bonus": 0.0, "target_pattern": "", "target_speed": 0.0}
{"timesteps": 80000, "episode": 33, "episode_length": 15993, "total_reward": -126.29816173680365, "terminated": false, "truncated": true, "mean_yaw_error": 1.4262812657181099, "max_yaw_error": 3.141570643150246, "min_yaw_error": 0.00011805355742121376, "std_yaw_error": 0.9013689107581142, "time_on_target": 0.04158069155255424, "time_close": 0.1502532357906584, "mean_action": -0.05899002423232125, "std_action": 1.038296334166386, "mean_action_change": 1.1714644061559658, "max_action": 4.0770583152771, "action_reversals": 7887, "mean_roll": 0.19936832994050332, "mean_pitch": 0.1206437423282115, "max_tilt": 0.9636231784910638, "mean_altitude_error": 0.01310454203048636, "reward_facing": 0.0, "reward_error_reduction": 0.0, "reward_velocity_match": 0.0, "reward_direction_bonus": 0.0, "reward_excess_penalty": 0.0, "reward_smoothness_penalty": 0.0, "reward_tracking_bonus": 0.0, "reward_alive_bonus": 0.0, "target_pattern": "", "target_speed": 0.0}
{"timesteps": 80000, "episode": 34, "episode_length": 1, "total_reward": -0.003795344615355134, "terminated": false, "truncated": true, "mean_yaw_error": 0.8734116963930765, "max_yaw_error": 0.8734116963930765, "min_yaw_error": 0.8734116963930765, "std_yaw_error": 0.0, "time_on_target": 0.0, "time_close": 0.0, "mean_action": 1.72219979763031, "std_action": 0.0, "mean_action_change": 0.0, "max_action": 1.72219979763031, "action_reversals": 0, "mean_roll": 0.016767731928728158, "mean_pitch": -0.008498876213307301, "max_tilt": 0.01879860981356894, "mean_altitude_error": 0.0005445256962910427, "reward_facing": 0.0, "reward_error_reduction": 0.0, "reward_velocity_match": 0.0, "reward_direction_bonus": 0.0, "reward_excess_penalty": 0.0, "reward_smoothness_penalty": 0.0, "reward_tracking_bonus": 0.0, "reward_alive_bonus": 0.0, "target_pattern": "", "target_speed": 0.0}
{"timesteps": 80000, "episode": 35, "episode_length": 1, "total_reward": -0.0012923587346449494, "terminated": false, "truncated": true, "mean_yaw_error": 0.7560341902933353, "max_yaw_error": 0.7560341902933353, "min_yaw_error": 0.7560341902933353, "std_yaw_error": 0.0, "time_on_target": 0.0, "time_close": 0.0, "mean_action": 1.2637141942977905, "std_action": 0.0, "mean_action_change": 0.0, "max_action": 1.2637141942977905, "action_reversals": 0, "mean_roll": -0.19374144242464705, "mean_pitch": 0.04013094033538746, "max_tilt": 0.19785408483270003, "mean_altitude_error": 0.0002656387825044071, "reward_facing": 0.0, "reward_error_reduction": 0.0, "reward_velocity_match": 0.0, "reward_direction_bonus": 0.0, "reward_excess_penalty": 0.0, "reward_smoothness_penalty": 0.0, "reward_tracking_bonus": 0.0, "reward_alive_bonus": 0.0, "target_pattern": "", "target_speed": 0.0}
{"timesteps": 80000, "episode": 36, "episode_length": 1, "total_reward": -0.017114080488681793, "terminated": false, "truncated": true, "mean_yaw_error": 2.085312227507541, "max_yaw_error": 2.085312227507541, "min_yaw_error": 2.085312227507541, "std_yaw_error": 0.0, "time_on_target": 0.0, "time_close": 0.0, "mean_action": 0.5372495055198669, "std_action": 0.0, "mean_action_change": 0.0, "max_action": 0.5372495055198669, "action_reversals": 0, "mean_roll": 0.018093586758355314, "mean_pitch": -0.045681146730857, "max_tilt": 0.04913395005928403, "mean_altitude_error": 0.00017356177201821588, "reward_facing": 0.0, "reward_error_reduction": 0.0, "reward_velocity_match": 0.0, "reward_direction_bonus": 0.0, "reward_excess_penalty": 0.0, "reward_smoothness_penalty": 0.0, "reward_tracking_bonus": 0.0, "reward_alive_bonus": 0.0, "target_pattern": "", "target_speed": 0.0}
{"timesteps": 80000, "episode": 37, "episode_length": 1, "total_reward": -0.018239369615912437, "terminated": false, "truncated": true, "mean_yaw_error": 1.8845858102127673, "max_yaw_error": 1.8845858102127673, "min_yaw_error": 1.8845858102127673, "std_yaw_error": 0.0, "time_on_target": 0.0, "time_close": 0.0, "mean_action": -2.171116352081299, "std_action": 0.0, "mean_action_change": 0.0, "max_action": 2.171116352081299, "action_reversals": 0, "mean_roll": 0.13176439003785267, "mean_pitch": 0.07507519442655626, "max_tilt": 0.15165137421148744, "mean_altitude_error": 0.0014225700572785271, "reward_facing": 0.0, "reward_error_reduction": 0.0, "reward_velocity_match": 0.0, "reward_direction_bonus": 0.0, "reward_excess_penalty": 0.0, "reward_smoothness_penalty": 0.0, "reward_tracking_bonus": 0.0, "reward_alive_bonus": 0.0, "target_pattern": "", "target_speed": 0.0}
{"timesteps": 80000, "episode": 38, "episode_length": 1, "total_reward": -0.022184165194630623, "terminated": false, "truncated": true, "mean_yaw_error": 3.046044289809016, "max_yaw_error": 3.046044289809016, "min_yaw_error": 3.046044289809016, "std_yaw_error": 0.0, "time_on_target": 0.0, "time_close": 0.0, "mean_action": -1.6258907318115234, "std_action": 0.0, "mean_action_change": 0.0, "max_action": 1.6258907318115234, "action_reversals": 0, "mean_roll": 0.14191357816377997, "mean_pitch": 0.09489399778983865, "max_tilt": 0.17071711830916428, "mean_altitude_error": 0.0018672182082346556, "reward_facing": 0.0, "reward_error_reduction": 0.0, "reward_velocity_match": 0.0, "reward_direction_bonus": 0.0, "reward_excess_penalty": 0.0, "reward_smoothness_penalty": 0.0, "reward_tracking_bonus": 0.0, "reward_alive_bonus": 0.0, "target_pattern": "", "target_speed": 0.0}
{"timesteps": 80000, "episode": 39, "episode_length": 1, "total_reward": -0.02354521118104458, "terminated": false, "truncated": true, "mean_yaw_error": 3.046050334645732, "max_yaw_error": 3.046050334645732, "min_yaw_error": 3.046050334645732, "std_yaw_error": 0.0, "time_on_target": 0.0, "time_close": 0.0, "mean_action": 0.4812835156917572, "std_action": 0.0, "mean_action_change": 0.0, "max_action": 0.4812835156917572, "action_reversals": 0, "mean_roll": 0.22919195107814488, "mean_pitch": 0.06042347507715379, "max_tilt": 0.23702309334621002, "mean_altitude_error": 0.0014232513319181184, "reward_facing": 0.0, "reward_error_reduction": 0.0, "reward_velocity_match": 0.0, "reward_direction_bonus": 0.0, "reward_excess_penalty": 0.0, "reward_smoothness_penalty": 0.0, "reward_tracking_bonus": 0.0, "reward_alive_bonus": 0.0, "target_pattern": "", "target_speed": 0.0}
{"timesteps": 80000, "episode": 40, "episode_length": 1, "total_reward": -0.002003684174269438, "terminated": false, "truncated": true, "mean_yaw_error": 0.8957305103338241, "max_yaw_error": 0.8957305103338241, "min_yaw_error": 0.8957305103338241, "std_yaw_error": 0.0, "time_on_target": 0.0, "time_close": 0.0, "mean_action": 1.5855400562286377, "std_action": 0.0, "mean_action_change": 0.0, "max_action": 1.5855400562286377, "action_reversals": 0, "mean_roll": -0.0440561762374679, "mean_pitch": -0.08196280856113208, "max_tilt": 0.09305293467642822, "mean_altitude_error": 0.0008623977837056707, "reward_facing": 0.0, "reward_error_reduction": 0.0, "reward_velocity_match": 0.0, "reward_direction_bonus": 0.0, "reward_excess_penalty": 0.0, "reward_smoothness_penalty": 0.0, "reward_tracking_bonus": 0.0, "reward_alive_bonus": 0.0, "target_pattern": "", "target_speed": 0.0}
{"timesteps": 80448, "episode": 41, "episode_length": 445, "total_reward": -6.162851260487514, "terminated": true, "truncated": false, "mean_yaw_error": 1.7210367156415902, "max_yaw_error": 3.1075321510659712, "min_yaw_error": 0.4776852906947829, "std_yaw_error": 0.8428829154284397, "time_on_target": 0.0, "time_close": 0.0, "mean_action": 0.0016621462289202079, "std_action": 1.0153919239651568, "mean_action_change": 1.152450169159754, "max_action": 3.010498285293579, "action_reversals": 225, "mean_roll": -1.3475339025220145, "mean_pitch": -0.48935812099306647, "max_tilt": 1.4336383745659416, "mean_altitude_error": 0.0019071071071710048, "reward_facing": 0.0, "reward_error_reduction": 0.0, "reward_velocity_match": 0.0, "reward_direction_bonus": 0.0, "reward_excess_penalty": 0.0, "reward_smoothness_penalty": 0.0, "reward_tracking_bonus": 0.0, "reward_alive_bonus": 0.0, "target_pattern": "", "target_speed": 0.0}
{"timesteps": 96000, "episode": 42, "episode_length": 15548, "total_reward": -128.06136771936735, "terminated": false, "truncated": true, "mean_yaw_error": 1.431094722847292, "max_yaw_error": 3.1415854612825136, "min_yaw_error": 0.00010051540633821206, "std_yaw_error": 0.9161939502637625, "time_on_target": 0.038268587599691276, "time_close": 0.14085412914844353, "mean_action": -0.03236228446856226, "std_action": 1.040740077986394, "mean_action_change": 1.1731759262940769, "max_action": 4.365052223205566, "action_reversals": 7753, "mean_roll": 0.31110335349874557, "mean_pitch": 0.03554909059555613, "max_tilt": 0.4516425353376095, "mean_altitude_error": 0.002030662526913084, "reward_facing": 0.0, "reward_error_reduction": 0.0, "reward_velocity_match": 0.0, "reward_direction_bonus": 0.0, "reward_excess_penalty": 0.0, "reward_smoothness_penalty": 0.0, "reward_tracking_bonus": 0.0, "reward_alive_bonus": 0.0, "target_pattern": "", "target_speed": 0.0}
{"timesteps": 96000, "episode": 43, "episode_length": 1, "total_reward": -0.01687050238251686, "terminated": false, "truncated": true, "mean_yaw_error": 1.8257819395244341, "max_yaw_error": 1.8257819395244341, "min_yaw_error": 1.8257819395244341, "std_yaw_error": 0.0, "time_on_target": 0.0, "time_close": 0.0, "mean_action": -0.9022222757339478, "std_action": 0.0, "mean_action_change": 0.0, "max_action": 0.9022222757339478, "action_reversals": 0, "mean_roll": -0.05093145884514282, "mean_pitch": -0.1079578781037908, "max_tilt": 0.11936882735776301, "mean_altitude_error": 0.00019960292795206946, "reward_facing": 0.0, "reward_error_reduction": 0.0, "reward_velocity_match": 0.0, "reward_direction_bonus": 0.0, "reward_excess_penalty": 0.0, "reward_smoothness_penalty": 0.0, "reward_tracking_bonus": 0.0, "reward_alive_bonus": 0.0, "target_pattern": "", "target_speed": 0.0}
{"timesteps": 96000, "episode": 44, "episode_length": 1, "total_reward": -0.01945696771144867, "terminated": false, "truncated": true, "mean_yaw_error": 2.384346619270688, "max_yaw_error": 2.384346619270688, "min_yaw_error": 2.384346619270688, "std_yaw_error": 0.0, "time_on_target": 0.0, "time_close": 0.0, "mean_action": 0.014235258102416992, "std_action": 0.0, "mean_action_change": 0.0, "max_action": 0.014235258102416992, "action_reversals": 0, "mean_roll": 0.024033210201492655, "mean_pitch": -0.09625111011841954, "max_tilt": 0.0992062064168228, "mean_altitude_error": 0.00016641125226968256, "reward_facing": 0.0, "reward_error_reduction": 0.0, "reward_velocity_match": 0.0, "reward_direction_bonus": 0.0, "reward_excess_penalty": 0.0, "reward_smoothness_penalty": 0.0, "reward_tracking_bonus": 0.0, "reward_alive_bonus": 0.0, "target_pattern": "", "target_speed": 0.0}
{"timesteps": 96000, "episode": 45, "episode_length": 1, "total_reward": -0.01939905434846878, "terminated": false, "truncated": true, "mean_yaw_error": 2.2463876944387775, "max_yaw_error": 2.2463876944387775, "min_yaw_error": 2.2463876944387775, "std_yaw_error": 0.0, "time_on_target": 0.0, "time_close": 0.0, "mean_action": 1.774289846420288, "std_action": 0.0, "mean_action_change": 0.0, "max_action": 1.774289846420288, "action_reversals": 0, "mean_roll": 0.2111319866248243, "mean_pitch": 0.08425112807592774, "max_tilt": 0.22732128883633262, "mean_altitude_error": 0.0001063821934668141, "reward_facing": 0.0, "reward_error_reduction": 0.0, "reward_velocity_match": 0.0, "reward_direction_bonus": 0.0, "reward_excess_penalty": 0.0, "reward_smoothness_penalty": 0.0, "reward_tracking_bonus": 0.0, "reward_alive_bonus": 0.0, "target_pattern": "", "target_speed": 0.0}
{"timesteps": 96000, "episode": 46, "episode_length": 2, "total_reward": -0.023970092413946986, "terminated": false, "truncated": true, "mean_yaw_error": 1.7709323155509276, "max_yaw_error": 2.8674131885008984, "min_yaw_error": 0.6744514426009567, "std_yaw_error": 1.0964808729499709, "time_on_target": 0.0, "time_close": 0.0, "mean_action": -0.6081853210926056, "std_action": 0.36181941628456116, "mean_action_change": 0.7236388325691223, "max_action": 0.9700047373771667, "action_reversals": 0, "mean_roll": 0.03271962585500704, "mean_pitch": 0.008156550790589865, "max_tilt": 0.2806685107185694, "mean_altitude_error": 0.00010886813721922017, "reward_facing": 0.0, "reward_error_reduction": 0.0, "reward_velocity_match": 0.0, "reward_direction_bonus": 0.0, "reward_excess_penalty": 0.0, "reward_smoothness_penalty": 0.0, "reward_tracking_bonus": 0.0, "reward_alive_bonus": 0.0, "target_pattern": "", "target_speed": 0.0}
{"timesteps": 96000, "episode": 47, "episode_length": 1, "total_reward": -0.022329118102788925, "terminated": false, "truncated": true, "mean_yaw_error": 3.005206664191515, "max_yaw_error": 3.005206664191515, "min_yaw_error": 3.005206664191515, "std_yaw_error": 0.0, "time_on_target": 0.0, "time_close": 0.0, "mean_action": -0.5168826580047607, "std_action": 0.0, "mean_action_change": 0.0, "max_action": 0.5168826580047607, "action_reversals": 0, "mean_roll": 0.1447317974415041, "mean_pitch": 0.09898307250989036, "max_tilt": 0.17534235607561222, "mean_altitude_error": 0.001365484297149444, "reward_facing": 0.0, "reward_error_reduction": 0.0, "reward_velocity_match": 0.0, "reward_direction_bonus": 0.0, "reward_excess_penalty": 0.0, "reward_smoothness_penalty": 0.0, "reward_tracking_bonus": 0.0, "reward_alive_bonus": 0.0, "target_pattern": "", "target_speed": 0.0}
{"timesteps": 96000, "episode": 48, "episode_length": 1, "total_reward": -0.021123509854078293, "terminated": false, "truncated": true, "mean_yaw_error": 2.8398647175165697, "max_yaw_error": 2.8398647175165697, "min_yaw_error": 2.8398647175165697, "std_yaw_error": 0.0, "time_on_target": 0.0, "time_close": 0.0, "mean_action": -0.12834328413009644, "std_action": 0.0, "mean_action_change": 0.0, "max_action": 0.12834328413009644, "action_reversals": 0, "mean_roll": -0.03227013932456647, "mean_pitch": 0.02232070404420539, "max_tilt": 0.03923742755400687, "mean_altitude_error": 7.274067128848483e-05, "reward_facing": 0.0, "reward_error_reduction": 0.0, "reward_velocity_match": 0.0, "reward_direction_bonus": 0.0, "reward_excess_penalty": 0.0, "reward_smoothness_penalty": 0.0, "reward_tracking_bonus": 0.0, "reward_alive_bonus": 0.0, "target_pattern": "", "target_speed": 0.0}
{"timesteps": 96440, "episode": 49, "episode_length": 439, "total_reward": -6.090478880545561, "terminated": true, "truncated": false, "mean_yaw_error": 1.6778762350629097, "max_yaw_error": 2.824989918733621, "min_yaw_error": 0.6750609065870522, "std_yaw_error": 0.7274399940528546, "time_on_target": 0.0, "time_close": 0.0, "mean_action": -0.0792462761537225, "std_action": 1.0372895363004448, "mean_action_change": 1.193621694463301, "max_action": 2.949336290359497, "action_reversals": 227, "mean_roll": -1.1584430770726688, "mean_pitch": 0.8774401039167482, "max_tilt": 1.4532348395146006, "mean_altitude_error": 0.0014220037002591133, "reward_facing": 0.0, "reward_error_reduction": 0.0, "reward_velocity_match": 0.0, "reward_direction_bonus": 0.0, "reward_excess_penalty": 0.0, "reward_smoothness_penalty": 0.0, "reward_tracking_bonus": 0.0, "reward_alive_bonus": 0.0, "target_pattern": "", "target_speed": 0.0}
{"timesteps": 96448, "episode": 50, "episode_length": 6, "total_reward": -0.08372339885681868, "terminated": false, "truncated": true, "mean_yaw_error": 1.777987608984325, "max_yaw_error": 2.6556440008759528, "min_yaw_error": 0.8250923249740646, "std_yaw_error": 0.7053026561144031, "time_on_target": 0.0, "time_close": 0.0, "mean_action": 0.41860558092594147, "std_action": 1.022053792495896, "mean_action_change": 1.2707974433898925, "max_action": 2.0707032680511475, "action_reversals": 4, "mean_roll": 0.2519603360326798, "mean_pitch": -0.08985903543132245, "max_tilt": 0.2675044993684192, "mean_altitude_error": 0.0027274962122012525, "reward_facing": 0.0, "reward_error_reduction": 0.0, "reward_velocity_match": 0.0, "reward_direction_bonus": 0.0, "reward_excess_penalty": 0.0, "reward_smoothness_penalty": 0.0, "reward_tracking_bonus": 0.0, "reward_alive_bonus": 0.0, "target_pattern": "", "target_speed": 0.0}
{"timesteps": 112000, "episode": 51, "episode_length": 15548, "total_reward": -192.1201247288659, "terminated": false, "truncated": true, "mean_yaw_error": 1.795867747646681, "max_yaw_error": 3.1410834065339115, "min_yaw_error": 0.0005383463332356731, "std_yaw_error": 0.8858413496970547, "time_on_target": 0.019037818368922047, "time_close": 0.07049138152817083, "mean_action": -0.017946186136931865, "std_action": 1.0343300188253948, "mean_action_change": 1.1702822213246076, "max_action": 3.8872509002685547, "action_reversals": 7777, "mean_roll": 0.09497080494336499, "mean_pitch": 0.37021992487340055, "max_tilt": 0.5322797541697927, "mean_altitude_error": 0.002224171205581289, "reward_facing": 0.0, "reward_error_reduction": 0.0, "reward_velocity_match": 0.0, "reward_direction_bonus": 0.0, "reward_excess_penalty": 0.0, "reward_smoothness_penalty": 0.0, "reward_tracking_bonus": 0.0, "reward_alive_bonus": 0.0, "target_pattern": "", "target_speed": 0.0}
{"timesteps": 112000, "episode": 52, "episode_length": 1, "total_reward": -0.01751067116856575, "terminated": false, "truncated": true, "mean_yaw_error": 2.0175512472717854, "max_yaw_error": 2.0175512472717854, "min_yaw_error": 2.0175512472717854, "std_yaw_error": 0.0, "time_on_target": 0.0, "time_close": 0.0, "mean_action": -1.1970092058181763, "std_action": 0.0, "mean_action_change": 0.0, "max_action": 1.1970092058181763, "action_reversals": 0, "mean_roll": 0.1987106824893222, "mean_pitch": -0.0849380922882106, "max_tilt": 0.2161027877120811, "mean_altitude_error": 0.0004188287896721432, "reward_facing": 0.0, "reward_error_reduction": 0.0, "reward_velocity_match": 0.0, "reward_direction_bonus": 0.0, "reward_excess_penalty": 0.0, "reward_smoothness_penalty": 0.0, "reward_tracking_bonus": 0.0, "reward_alive_bonus": 0.0, "target_pattern": "", "target_speed": 0.0}
{"timesteps": 112000, "episode": 53, "episode_length": 1, "total_reward": 0.003264413448050618, "terminated": false, "truncated": true, "mean_yaw_error": 0.4491905223277689, "max_yaw_error": 0.4491905223277689, "min_yaw_error": 0.4491905223277689, "std_yaw_error": 0.0, "time_on_target": 0.0, "time_close": 0.0, "mean_action": -1.5842396020889282, "std_action": 0.0, "mean_action_change": 0.0, "max_action": 1.5842396020889282, "action_reversals": 0, "mean_roll": 0.06255332405935957, "mean_pitch": -0.15620331185491257, "max_tilt": 0.16826286870643303, "mean_altitude_error": 0.003005159194299445, "reward_facing": 0.0, "reward_error_reduction": 0.0, "reward_velocity_match": 0.0, "reward_direction_bonus": 0.0, "reward_excess_penalty": 0.0, "reward_smoothness_penalty": 0.0, "reward_tracking_bonus": 0.0, "reward_alive_bonus": 0.0, "target_pattern": "", "target_speed": 0.0}
{"timesteps": 112000, "episode": 54, "episode_length": 1, "total_reward": -0.018957842141389847, "terminated": false, "truncated": true, "mean_yaw_error": 2.399219382506225, "max_yaw_error": 2.399219382506225, "min_yaw_error": 2.399219382506225, "std_yaw_error": 0.0, "time_on_target": 0.0, "time_close": 0.0, "mean_action": -0.9471908211708069, "std_action": 0.0, "mean_action_change": 0.0, "max_action": 0.9471908211708069, "action_reversals": 0, "mean_roll": -0.03416872278987808, "mean_pitch": -0.020467653062438654, "max_tilt": 0.03982996910588669, "mean_altitude_error": 0.00017592783349029695, "reward_facing": 0.0, "reward_error_reduction": 0.0, "reward_velocity_match": 0.0, "reward_direction_bonus": 0.0, "reward_excess_penalty": 0.0, "reward_smoothness_penalty": 0.0, "reward_tracking_bonus": 0.0, "reward_alive_bonus": 0.0, "target_pattern": "", "target_speed": 0.0}
{"timesteps": 112000, "episode": 55, "episode_length": 2, "total_reward": -0.022977124666795135, "terminated": false, "truncated": true, "mean_yaw_error": 1.8658180646530624, "max_yaw_error": 2.825426371099561, "min_yaw_error": 0.9062097582065636, "std_yaw_error": 0.9596083064464987, "time_on_target": 0.0, "time_close": 0.0, "mean_action": -0.1906345933675766, "std_action": 0.5389977842569351, "mean_action_change": 1.0779955685138702, "max_action": 0.7296323776245117, "action_reversals": 1, "mean_roll": -0.00530772175497468, "mean_pitch": 0.2734672235759842, "max_tilt": 0.2735187274769052, "mean_altitude_error": 0.0007713369093428901, "reward_facing": 0.0, "reward_error_reduction": 0.0, "reward_velocity_match": 0.0, "reward_direction_bonus": 0.0, "reward_excess_penalty": 0.0, "reward_smoothness_penalty": 0.0, "reward_tracking_bonus": 0.0, "reward_alive_bonus": 0.0, "target_pattern": "", "target_speed": 0.0}
{"timesteps": 112000, "episode": 56, "episode_length": 2, "total_reward": 0.007294150069355965, "terminated": false, "truncated": true, "mean_yaw_error": 0.5357996706077744, "max_yaw_error": 0.9328732906643612, "min_yaw_error": 0.13872605055118778, "std_yaw_error": 0.3970736200565867, "time_on_target": 0.0, "time_close": 0.5, "mean_action": 0.1294923797249794, "std_action": 0.3490275368094444, "mean_action_change": 0.6980550736188889, "max_action": 0.47851991653442383, "action_reversals": 1, "mean_roll": -0.13030377653927133, "mean_pitch": -0.2935497011974061, "max_tilt": 0.32117051741011776, "mean_altitude_error": 0.0004327448563638536, "reward_facing": 0.0, "reward_error_reduction": 0.0, "reward_velocity_match": 0.0, "reward_direction_bonus": 0.0, "reward_excess_penalty": 0.0, "reward_smoothness_penalty": 0.0, "reward_tracking_bonus": 0.0, "reward_alive_bonus": 0.0, "target_pattern": "", "target_speed": 0.0}
{"timesteps": 112440, "episode": 57, "episode_length": 439, "total_reward": -5.1026613912545145, "terminated": false, "truncated": true, "mean_yaw_error": 1.7895016442111202, "max_yaw_error": 3.033684483948411, "min_yaw_error": 0.00025866901005469053, "std_yaw_error": 0.9387423621818026, "time_on_target": 0.08200455580865604, "time_close": 0.1252847380410023, "mean_action": -0.119015536807766, "std_action": 1.0012245848019228, "mean_action_change": 1.066566688752814, "max_action": 4.391107082366943, "action_reversals": 206, "mean_roll": -0.13602786565504596, "mean_pitch": -0.16549854216326867, "max_tilt": 0.8265751559772878, "mean_altitude_error": 0.0011285079566259165, "reward_facing": 0.0, "reward_error_reduction": 0.0, "reward_velocity_match": 0.0, "reward_direction_bonus": 0.0, "reward_excess_penalty": 0.0, "reward_smoothness_penalty": 0.0, "reward_tracking_bonus": 0.0, "reward_alive_bonus": 0.0, "target_pattern": "", "target_speed": 0.0}
{"timesteps": 112448, "episode": 58, "episode_length": 6, "total_reward": -0.09812180791050196, "terminated": false, "truncated": true, "mean_yaw_error": 2.0963194499815407, "max_yaw_error": 2.858086782728955, "min_yaw_error": 0.7765976374795396, "std_yaw_error": 0.7739669994217117, "time_on_target": 0.0, "time_close": 0.0, "mean_action": 0.1643341581026713, "std_action": 0.8254411190504114, "mean_action_change": 1.1731551051139832, "max_action": 1.1254386901855469, "action_reversals": 3, "mean_roll": -0.1864507875210336, "mean_pitch": 0.21140878055446935, "max_tilt": 0.8320624064308949, "mean_altitude_error": 0.005422206340577533, "reward_facing": 0.0, "reward_error_reduction": 0.0, "reward_velocity_match": 0.0, "reward_direction_bonus": 0.0, "reward_excess_penalty": 0.0, "reward_smoothness_penalty": 0.0, "reward_tracking_bonus": 0.0, "reward_alive_bonus": 0.0, "target_pattern": "", "target_speed": 0.0}
{"timesteps": 128000, "episode": 59, "episode_length": 15548, "total_reward": -172.2184300399481, "terminated": false, "truncated": true, "mean_yaw_error": 1.6796009771863463, "max_yaw_error": 3.1415432646392207, "min_yaw_error": 9.691347013578891e-05, "std_yaw_error": 0.9430231005006052, "time_on_target": 0.026241317211216877, "time_close": 0.10245690764085413, "mean_action": -0.05037886089013263, "std_action": 1.0185692198754364, "mean_action_change": 1.152928778093835, "max_action": 4.161505699157715, "action_reversals": 7772, "mean_roll": 0.17231051341591277, "mean_pitch": 0.010390806155535679, "max_tilt": 0.9847281518108323, "mean_altitude_error": 0.01408881118116103, "reward_facing": 0.0, "reward_error_reduction": 0.0, "reward_velocity_match": 0.0, "reward_direction_bonus": 0.0, "reward_excess_penalty": 0.0, "reward_smoothness_penalty": 0.0, "reward_tracking_bonus": 0.0, "reward_alive_bonus": 0.0, "target_pattern": "", "target_speed": 0.0}
{"timesteps": 128000, "episode": 60, "episode_length": 1, "total_reward": -0.006645313464105129, "terminated": false, "truncated": true, "mean_yaw_error": 1.3197410697234795, "max_yaw_error": 1.3197410697234795, "min_yaw_error": 1.3197410697234795, "std_yaw_error": 0.0, "time_on_target": 0.0, "time_close": 0.0, "mean_action": -1.3360015153884888, "std_action": 0.0, "mean_action_change": 0.0, "max_action": 1.3360015153884888, "action_reversals": 0, "mean_roll": -0.18591539739938273, "mean_pitch": -0.21454516521666542, "max_tilt": 0.2838911110056401, "mean_altitude_error": 0.0003679241136157474, "reward_facing": 0.0, "reward_error_reduction": 0.0, "reward_velocity_match": 0.0, "reward_direction_bonus": 0.0, "reward_excess_penalty": 0.0, "reward_smoothness_penalty": 0.0, "reward_tracking_bonus": 0.0, "reward_alive_bonus": 0.0, "target_pattern": "", "target_speed": 0.0}
{"timesteps": 128000, "episode": 61, "episode_length": 1, "total_reward": -0.018816132098436356, "terminated": false, "truncated": true, "mean_yaw_error": 2.307903451205157, "max_yaw_error": 2.307903451205157, "min_yaw_error": 2.307903451205157, "std_yaw_error": 0.0, "time_on_target": 0.0, "time_close": 0.0, "mean_action": -0.1738392412662506, "std_action": 0.0, "mean_action_change": 0.0, "max_action": 0.1738392412662506, "action_reversals": 0, "mean_roll": 0.019840865598913668, "mean_pitch": -0.06855407978862435, "max_tilt": 0.07136751224036907, "mean_altitude_error": 4.119777919153744e-05, "reward_facing": 0.0, "reward_error_reduction": 0.0, "reward_velocity_match": 0.0, "reward_direction_bonus": 0.0, "reward_excess_penalty": 0.0, "reward_smoothness_penalty": 0.0, "reward_tracking_bonus": 0.0, "reward_alive_bonus": 0.0, "target_pattern": "", "target_speed": 0.0}
{"timesteps": 128000, "episode": 62, "episode_length": 1, "total_reward": -0.01748337596654892, "terminated": false, "truncated": true, "mean_yaw_error": 2.1299439833520566, "max_yaw_error": 2.1299439833520566, "min_yaw_error": 2.1299439833520566, "std_yaw_error": 0.0, "time_on_target": 0.0, "time_close": 0.0, "mean_action": 0.7506707906723022, "std_action": 0.0, "mean_action_change": 0.0, "max_action": 0.7506707906723022, "action_reversals": 0, "mean_roll": 0.03089716144175277, "mean_pitch": 0.02382861143543203, "max_tilt": 0.03901842267568662, "mean_altitude_error": 0.00034781145082618536, "reward_facing": 0.0, "reward_error_reduction": 0.0, "reward_velocity_match": 0.0, "reward_direction_bonus": 0.0, "reward_excess_penalty": 0.0, "reward_smoothness_penalty": 0.0, "reward_tracking_bonus": 0.0, "reward_alive_bonus": 0.0, "target_pattern": "", "target_speed": 0.0}
{"timesteps": 128000, "episode": 63, "episode_length": 2, "total_reward": -0.03587176464498043, "terminated": false, "truncated": true, "mean_yaw_error": 2.048378255869544, "max_yaw_error": 2.0941708970431976, "min_yaw_error": 2.0025856146958905, "std_yaw_error": 0.04579264117365356, "time_on_target": 0.0, "time_close": 0.0, "mean_action": 0.36978156864643097, "std_action": 0.43678615987300873, "mean_action_change": 0.8735723197460175, "max_action": 0.8065677285194397, "action_reversals": 1, "mean_roll": -0.009352246989388965, "mean_pitch": 0.006181359402638769, "max_tilt": 0.28539973152591624, "mean_altitude_error": 0.001153523994507466, "reward_facing": 0.0, "reward_error_reduction": 0.0, "reward_velocity_match": 0.0, "reward_direction_bonus": 0.0, "reward_excess_penalty": 0.0, "reward_smoothness_penalty": 0.0, "reward_tracking_bonus": 0.0, "reward_alive_bonus": 0.0, "target_pattern": "", "target_speed": 0.0}
{"timesteps": 128000, "episode": 64, "episode_length": 2, "total_reward": -0.01868001709226519, "terminated": false, "truncated": true, "mean_yaw_error": 1.4047430113392183, "max_yaw_error": 2.1992847505063264, "min_yaw_error": 0.6102012721721101, "std_yaw_error": 0.7945417391671082, "time_on_target": 0.0, "time_close": 0.0, "mean_action": 0.746345043182373, "std_action": 0.1826244592666626, "mean_action_change": 0.3652489185333252, "max_action": 0.9289695024490356, "action_reversals": 0, "mean_roll": -0.021652685788950275, "mean_pitch": 0.03342312292886947, "max_tilt": 0.2311647976740584, "mean_altitude_error": 0.0007679511380765391, "reward_facing": 0.0, "reward_error_reduction": 0.0, "reward_velocity_match": 0.0, "reward_direction_bonus": 0.0, "reward_excess_penalty": 0.0, "reward_smoothness_penalty": 0.0, "reward_tracking_bonus": 0.0, "reward_alive_bonus": 0.0, "target_pattern": "", "target_speed": 0.0}
{"timesteps": 128440, "episode": 65, "episode_length": 439, "total_reward": -5.0185179776281075, "terminated": false, "truncated": true, "mean_yaw_error": 1.6488983273655178, "max_yaw_error": 2.781463324302, "min_yaw_error": 0.07296021236115417, "std_yaw_error": 0.9345105077689893, "time_on_target": 0.02050113895216401, "time_close": 0.1252847380410023, "mean_action": -0.03265050691679748, "std_action": 0.9785453832352142, "mean_action_change": 1.1423397132165765, "max_action": 3.374373435974121, "action_reversals": 229, "mean_roll": 0.2359436626553299, "mean_pitch": 0.13592441081417775, "max_tilt": 1.1618611048536913, "mean_altitude_error": 0.0016786368905189412, "reward_facing": 0.0, "reward_error_reduction": 0.0, "reward_velocity_match": 0.0, "reward_direction_bonus": 0.0, "reward_excess_penalty": 0.0, "reward_smoothness_penalty": 0.0, "reward_tracking_bonus": 0.0, "reward_alive_bonus": 0.0, "target_pattern": "", "target_speed": 0.0}
{"timesteps": 128448, "episode": 66, "episode_length": 6, "total_reward": -0.10207113926298916, "terminated": false, "truncated": true, "mean_yaw_error": 1.8443841872359927, "max_yaw_error": 2.60437389393899, "min_yaw_error": 0.5348189950187827, "std_yaw_error": 0.8518993266497477, "time_on_target": 0.0, "time_close": 0.0, "mean_action": 0.25032588342825574, "std_action": 1.5643255412889316, "mean_action_change": 1.6736097574234008, "max_action": 3.0055739879608154, "action_reversals": 3, "mean_roll": 0.14450411424983414, "mean_pitch": 0.227540560148729, "max_tilt": 1.1982187313333708, "mean_altitude_error": 0.008426800455732242, "reward_facing": 0.0, "reward_error_reduction": 0.0, "reward_velocity_match": 0.0, "reward_direction_bonus": 0.0, "reward_excess_penalty": 0.0, "reward_smoothness_penalty": 0.0, "reward_tracking_bonus": 0.0, "reward_alive_bonus": 0.0, "target_pattern": "", "target_speed": 0.0}
