{"timesteps": 320, "episode": 1, "episode_length": 317, "total_reward": -67.1238738799002, "terminated": true, "truncated": false, "mean_yaw_error": 1.7479077149084503, "max_yaw_error": 2.9556411396292295, "min_yaw_error": 0.6865007585076132, "std_yaw_error": 0.7356989966225049, "time_on_target": 0.0, "time_close": 0.0, "mean_action": 0.061725056583314473, "std_action": 0.971639289135449, "mean_action_change": 1.0787827466508444, "max_action": 2.871095895767212, "action_reversals": 152, "mean_roll": 1.2524311281321117, "mean_pitch": 0.9747706599381039, "max_tilt": 1.5870606699778178, "mean_altitude_error": 0.0007108010638845278, "reward_facing": 0.0, "reward_error_reduction": 0.0, "reward_velocity_match": 0.0, "reward_direction_bonus": 0.0, "reward_excess_penalty": 0.0, "reward_smoothness_penalty": 0.0, "reward_tracking_bonus": 0.0, "reward_alive_bonus": 0.0, "target_pattern": "", "target_speed": 0.0}
{"timesteps": 344, "episode": 2, "episode_length": 22, "total_reward": -2.289111930760555, "terminated": true, "truncated": false, "mean_yaw_error": 1.9704612221950675, "max_yaw_error": 2.8336976205887345, "min_yaw_error": 0.6754459266621984, "std_yaw_error": 0.6409695432339406, "time_on_target": 0.0, "time_close": 0.0, "mean_action": -0.21476896581324664, "std_action": 0.9418418542999205, "mean_action_change": 1.0364661401226407, "max_action": 2.2432401180267334, "action_reversals": 8, "mean_roll": -0.8465211666501229, "mean_pitch": -1.2145245198910037, "max_tilt": 1.4804282809387148, "mean_altitude_error": 0.003415642956065284, "reward_facing": 0.0, "reward_error_reduction": 0.0, "reward_velocity_match": 0.0, "reward_direction_bonus": 0.0, "reward_excess_penalty": 0.0, "reward_smoothness_penalty": 0.0, "reward_tracking_bonus": 0.0, "reward_alive_bonus": 0.0, "target_pattern": "", "target_speed": 0.0}
{"timesteps": 16000, "episode": 3, "episode_length": 15654, "total_reward": -190.3241877467043, "terminated": false, "truncated": true, "mean_yaw_error": 1.5697374370168573, "max_yaw_error": 3.141583382610594, "min_yaw_error": 1.1878966042102187e-05, "std_yaw_error": 0.9004414571846201, "time_on_target": 0.023061198415740385, "time_close": 0.11211192027596781, "mean_action": -0.001921866063887492, "std_action": 1.0022933212510285, "mean_action_change": 1.133662815479414, "max_action": 3.6130893230438232, "action_reversals": 7897, "mean_roll": 0.11550070434406959, "mean_pitch": 0.09062460268657857, "max_tilt": 0.5005875977082936, "mean_altitude_error": 0.001924705651598228, "reward_facing": 0.0, "reward_error_reduction": 0.0, "reward_velocity_match": 0.0, "reward_direction_bonus": 0.0, "reward_excess_penalty": 0.0, "reward_smoothness_penalty": 0.0, "reward_tracking_bonus": 0.0, "reward_alive_bonus": 0.0, "target_pattern": "", "target_speed": 0.0}
{"timesteps": 16000, "episode": 4, "episode_length": 1, "total_reward": 0.00587090477347374, "terminated": false, "truncated": true, "mean_yaw_error": 0.30791413668515333, "max_yaw_error": 0.30791413668515333, "min_yaw_error": 0.30791413668515333, "std_yaw_error": 0.0, "time_on_target": 0.0, "time_close": 1.0, "mean_action": -1.0252400636672974, "std_action": 0.0, "mean_action_change": 0.0, "max_action": 1.0252400636672974, "action_reversals": 0, "mean_roll": -0.04196650059442865, "mean_pitch": -0.011460587529632511, "max_tilt": 0.043503244001643696, "mean_altitude_error": 0.00019157270338621135, "reward_facing": 0.0, "reward_error_reduction": 0.0, "reward_velocity_match": 0.0, "reward_direction_bonus": 0.0, "reward_excess_penalty": 0.0, "reward_smoothness_penalty": 0.0, "reward_tracking_bonus": 0.0, "reward_alive_bonus": 0.0, "target_pattern": "", "target_speed": 0.0}
{"timesteps": 16000, "episode": 5, "episode_length": 2, "total_reward": -0.02126623853109777, "terminated": false, "truncated": true, "mean_yaw_error": 1.6268345517678684, "max_yaw_error": 2.758246464543565, "min_yaw_error": 0.4954226389921714, "std_yaw_error": 1.1314119127756967, "time_on_target": 0.0, "time_close": 0.0, "mean_action": -0.3595558591187, "std_action": 0.2723032645881176, "mean_action_change": 0.5446065291762352, "max_action": 0.6318591237068176, "action_reversals": 0, "mean_roll": 0.006824728071584935, "mean_pitch": -0.0030877721570100186, "max_tilt": 0.07983510196086058, "mean_altitude_error": 0.0003366998575423108, "reward_facing": 0.0, "reward_error_reduction": 0.0, "reward_velocity_match": 0.0, "reward_direction_bonus": 0.0, "reward_excess_penalty": 0.0, "reward_smoothness_penalty": 0.0, "reward_tracking_bonus": 0.0, "reward_alive_bonus": 0.0, "target_pattern": "", "target_speed": 0.0}
{"timesteps": 16000, "episode": 6, "episode_length": 2, "total_reward": -0.007291508722119033, "terminated": false, "truncated": true, "mean_yaw_error": 0.9071663328775335, "max_yaw_error": 1.3912083232980388, "min_yaw_error": 0.423124342457028, "std_yaw_error": 0.4840419904205054, "time_on_target": 0.0, "time_close": 0.0, "mean_action": 0.06608638912439346, "std_action": 0.29085852950811386, "mean_action_change": 0.5817170590162277, "max_action": 0.3569449186325073, "action_reversals": 1, "mean_roll": -0.058228467707456, "mean_pitch": 0.018780193610288966, "max_tilt": 0.07173916466544375, "mean_altitude_error": 0.0003641863416358748, "reward_facing": 0.0, "reward_error_reduction": 0.0, "reward_velocity_match": 0.0, "reward_direction_bonus": 0.0, "reward_excess_penalty": 0.0, "reward_smoothness_penalty": 0.0, "reward_tracking_bonus": 0.0, "reward_alive_bonus": 0.0, "target_pattern": "", "target_speed": 0.0}
{"timesteps": 16000, "episode": 7, "episode_length": 1, "total_reward": -0.020843474194407463, "terminated": false, "truncated": true, "mean_yaw_error": 2.242204730888985, "max_yaw_error": 2.242204730888985, "min_yaw_error": 2.242204730888985, "std_yaw_error": 0.0, "time_on_target": 0.0, "time_close": 0.0, "mean_action": 0.35409677028656006, "std_action": 0.0, "mean_action_change": 0.0, "max_action": 0.35409677028656006, "action_reversals": 0, "mean_roll": -0.16089833225237754, "mean_pitch": -0.06250233433479051, "max_tilt": 0.17261174675813465, "mean_altitude_error": 0.00035760584763278036, "reward_facing": 0.0, "reward_error_reduction": 0.0, "reward_velocity_match": 0.0, "reward_direction_bonus": 0.0, "reward_excess_penalty": 0.0, "reward_smoothness_penalty": 0.0, "reward_tracking_bonus": 0.0, "reward_alive_bonus": 0.0, "target_pattern": "", "target_speed": 0.0}
{"timesteps": 16000, "episode": 8, "episode_length": 1, "total_reward": -0.021230023354291916, "terminated": false, "truncated": true, "mean_yaw_error": 2.7771812399826126, "max_yaw_error": 2.7771812399826126, "min_yaw_error": 2.7771812399826126, "std_yaw_error": 0.0, "time_on_target": 0.0, "time_close": 0.0, "mean_action": 0.48538827896118164, "std_action": 0.0, "mean_action_change": 0.0, "max_action": 0.48538827896118164, "action_reversals": 0, "mean_roll": -0.04794955674974083, "mean_pitch": -0.13437688200659095, "max_tilt": 0.14267552842134448, "mean_altitude_error": 0.0002690286979267764, "reward_facing": 0.0, "reward_error_reduction": 0.0, "reward_velocity_match": 0.0, "reward_direction_bonus": 0.0, "reward_excess_penalty": 0.0, "reward_smoothness_penalty": 0.0, "reward_tracking_bonus": 0.0, "reward_alive_bonus": 0.0, "target_pattern": "", "target_speed": 0.0}
{"timesteps": 16320, "episode": 9, "episode_length": 317, "total_reward": -2.599475232031182, "terminated": false, "truncated": true, "mean_yaw_error": 1.3522985203064681, "max_yaw_error": 3.136944753430707, "min_yaw_error": 0.005169822323982775, "std_yaw_error": 1.000861481227741, "time_on_target": 0.006309148264984227, "time_close": 0.0914826498422713, "mean_action": 0.031069145943346647, "std_action": 1.0204093358302564, "mean_action_change": 1.18902786346624, "max_action": 3.417731761932373, "action_reversals": 170, "mean_roll": 0.05315877265716695, "mean_pitch": 0.06182781173396528, "max_tilt": 1.0327089832833454, "mean_altitude_error": 0.0004981263480554806, "reward_facing": 0.0, "reward_error_reduction": 0.0, "reward_velocity_match": 0.0, "reward_direction_bonus": 0.0, "reward_excess_penalty": 0.0, "reward_smoothness_penalty": 0.0, "reward_tracking_bonus": 0.0, "reward_alive_bonus": 0.0, "target_pattern": "", "target_speed": 0.0}
{"timesteps": 16344, "episode": 10, "episode_length": 22, "total_reward": -0.19618894115501462, "terminated": false, "truncated": true, "mean_yaw_error": 1.2616233911463122, "max_yaw_error": 3.012290204744134, "min_yaw_error": 0.07466458558889061, "std_yaw_error": 1.0721925654984952, "time_on_target": 0.045454545454545456, "time_close": 0.13636363636363635, "mean_action": 0.03779862685637041, "std_action": 0.7945109248976103, "mean_action_change": 1.1870842845666976, "max_action": 1.4448018074035645, "action_reversals": 16, "mean_roll": -0.07462232584058438, "mean_pitch": 0.06253718954187619, "max_tilt": 1.31208070776254, "mean_altitude_error": 0.0026830900611444423, "reward_facing": 0.0, "reward_error_reduction": 0.0, "reward_velocity_match": 0.0, "reward_direction_bonus": 0.0, "reward_excess_penalty": 0.0, "reward_smoothness_penalty": 0.0, "reward_tracking_bonus": 0.0, "reward_alive_bonus": 0.0, "target_pattern": "", "target_speed": 0.0}
{"timesteps": 16344, "episode": 11, "episode_length": 4, "total_reward": -0.15742799337022007, "terminated": true, "truncated": false, "mean_yaw_error": 1.0512509178560452, "max_yaw_error": 3.0027247371732355, "min_yaw_error": 0.37497778734451953, "std_yaw_error": 1.1267945995740931, "time_on_target": 0.0, "time_close": 0.0, "mean_action": -0.028138332068920135, "std_action": 0.5740943444493666, "mean_action_change": 1.1184122363726299, "max_action": 0.6960874795913696, "action_reversals": 3, "mean_roll": 1.0992933401437115, "mean_pitch": 0.9007381199018515, "max_tilt": 1.4211878863572684, "mean_altitude_error": 0.004897448572074581, "reward_facing": 0.0, "reward_error_reduction": 0.0, "reward_velocity_match": 0.0, "reward_direction_bonus": 0.0, "reward_excess_penalty": 0.0, "reward_smoothness_penalty": 0.0, "reward_tracking_bonus": 0.0, "reward_alive_bonus": 0.0, "target_pattern": "", "target_speed": 0.0}
{"timesteps": 16624, "episode": 12, "episode_length": 278, "total_reward": -2.8701018433494028, "terminated": true, "truncated": false, "mean_yaw_error": 1.4677825379176872, "max_yaw_error": 2.999523930520204, "min_yaw_error": 0.30103568063976555, "std_yaw_error": 1.0448579139778718, "time_on_target": 0.0, "time_close": 0.10071942446043165, "mean_action": -0.05400037291968952, "std_action": 1.041060726292925, "mean_action_change": 1.1407049838957857, "max_action": 3.1382601261138916, "action_reversals": 131, "mean_roll": 1.1357646245341386, "mean_pitch": -0.8392374798437121, "max_tilt": 1.4121900827854577, "mean_altitude_error": 0.002475799197415562, "reward_facing": 0.0, "reward_error_reduction": 0.0, "reward_velocity_match": 0.0, "reward_direction_bonus": 0.0, "reward_excess_penalty": 0.0, "reward_smoothness_penalty": 0.0, "reward_tracking_bonus": 0.0, "reward_alive_bonus": 0.0, "target_pattern": "", "target_speed": 0.0}
{"timesteps": 16696, "episode": 13, "episode_length": 74, "total_reward": -0.8782905635380303, "terminated": true, "truncated": false, "mean_yaw_error": 1.5239693620867842, "max_yaw_error": 2.8910696667513496, "min_yaw_error": 0.2717731343093562, "std_yaw_error": 0.998832750290465, "time_on_target": 0.0, "time_close": 0.24324324324324326, "mean_action": -0.015184065931149432, "std_action": 1.029289605432985, "mean_action_change": 1.1107606555092824, "max_action": 2.4316303730010986, "action_reversals": 36, "mean_roll": 0.630361963988062, "mean_pitch": 1.4616734838027148, "max_tilt": 1.5918057604164058, "mean_altitude_error": 0.004134121864416992, "reward_facing": 0.0, "reward_error_reduction": 0.0, "reward_velocity_match": 0.0, "reward_direction_bonus": 0.0, "reward_excess_penalty": 0.0, "reward_smoothness_penalty": 0.0, "reward_tracking_bonus": 0.0, "reward_alive_bonus": 0.0, "target_pattern": "", "target_speed": 0.0}
{"timesteps": 32000, "episode": 14, "episode_length": 15298, "total_reward": -126.21893599394696, "terminated": false, "truncated": true, "mean_yaw_error": 1.423198001311356, "max_yaw_error": 3.1414023630207164, "min_yaw_error": 6.484787293235862e-05, "std_yaw_error": 0.8893874697341299, "time_on_target": 0.03556020394822853, "time_close": 0.12531049810432737, "mean_action": -0.02918537126206069, "std_action": 1.005851744588351, "mean_action_change": 1.1341961625273163, "max_action": 4.241933345794678, "action_reversals": 7680, "mean_roll": 0.008101821608217865, "mean_pitch": 0.05725877617934763, "max_tilt": 0.43850659522153057, "mean_altitude_error": 0.001918751577686133, "reward_facing": 0.0, "reward_error_reduction": 0.0, "reward_velocity_match": 0.0, "reward_direction_bonus": 0.0, "reward_excess_penalty": 0.0, "reward_smoothness_penalty": 0.0, "reward_tracking_bonus": 0.0, "reward_alive_bonus": 0.0, "target_pattern": "", "target_speed": 0.0}
{"timesteps": 32000, "episode": 15, "episode_length": 1, "total_reward": -0.02166801504790783, "terminated": false, "truncated": true, "mean_yaw_error": 2.8924373700045334, "max_yaw_error": 2.8924373700045334, "min_yaw_error": 2.8924373700045334, "std_yaw_error": 0.0, "time_on_target": 0.0, "time_close": 0.0, "mean_action": 0.22600194811820984, "std_action": 0.0, "mean_action_change": 0.0, "max_action": 0.22600194811820984, "action_reversals": 0, "mean_roll": 0.008336639730234041, "mean_pitch": -0.01522347301084497, "max_tilt": 0.017356661329404395, "mean_altitude_error": 0.000447503180058928, "reward_facing": 0.0, "reward_error_reduction": 0.0, "reward_velocity_match": 0.0, "reward_direction_bonus": 0.0, "reward_excess_penalty": 0.0, "reward_smoothness_penalty": 0.0, "reward_tracking_bonus": 0.0, "reward_alive_bonus": 0.0, "target_pattern": "", "target_speed": 0.0}
{"timesteps": 32000, "episode": 16, "episode_length": 2, "total_reward": -0.01977344579063356, "terminated": false, "truncated": true, "mean_yaw_error": 1.4333042470115949, "max_yaw_error": 1.7916345951878194, "min_yaw_error": 1.0749738988353705, "std_yaw_error": 0.35833034817622444, "time_on_target": 0.0, "time_close": 0.0, "mean_action": -0.2518983483314514, "std_action": 1.286454975605011, "mean_action_change": 2.572909951210022, "max_action": 1.5383533239364624, "action_reversals": 1, "mean_roll": -0.02170757668535508, "mean_pitch": 0.0013968934246406156, "max_tilt": 0.09722200946534608, "mean_altitude_error": 0.00045437077840987383, "reward_facing": 0.0, "reward_error_reduction": 0.0, "reward_velocity_match": 0.0, "reward_direction_bonus": 0.0, "reward_excess_penalty": 0.0, "reward_smoothness_penalty": 0.0, "reward_tracking_bonus": 0.0, "reward_alive_bonus": 0.0, "target_pattern": "", "target_speed": 0.0}
{"timesteps": 32000, "episode": 17, "episode_length": 2, "total_reward": -0.021993461763486266, "terminated": false, "truncated": true, "mean_yaw_error": 1.576817028022857, "max_yaw_error": 2.313852446451944, "min_yaw_error": 0.83978160959377, "std_yaw_error": 0.737035418429087, "time_on_target": 0.0, "time_close": 0.0, "mean_action": -0.25059954449534416, "std_action": 0.2775860019028187, "mean_action_change": 0.5551720038056374, "max_action": 0.5281855463981628, "action_reversals": 1, "mean_roll": -0.007728629790196961, "mean_pitch": -0.003796235172906739, "max_tilt": 0.3693999321108701, "mean_altitude_error": 0.00019802273674141002, "reward_facing": 0.0, "reward_error_reduction": 0.0, "reward_velocity_match": 0.0, "reward_direction_bonus": 0.0, "reward_excess_penalty": 0.0, "reward_smoothness_penalty": 0.0, "reward_tracking_bonus": 0.0, "reward_alive_bonus": 0.0, "target_pattern": "", "target_speed": 0.0}
{"timesteps": 32000, "episode": 18, "episode_length": 2, "total_reward": -0.03652764484286308, "terminated": false, "truncated": true, "mean_yaw_error": 2.084289680361409, "max_yaw_error": 2.3998587783018523, "min_yaw_error": 1.7687205824209655, "std_yaw_error": 0.3155690979404434, "time_on_target": 0.0, "time_close": 0.0, "mean_action": -0.4663348160684109, "std_action": 0.409772340208292, "mean_action_change": 0.819544680416584, "max_action": 0.8761071562767029, "action_reversals": 0, "mean_roll": -0.024389554249891473, "mean_pitch": 0.031510675326139485, "max_tilt": 0.03984686958868632, "mean_altitude_error": 4.919908300116127e-05, "reward_facing": 0.0, "reward_error_reduction": 0.0, "reward_velocity_match": 0.0, "reward_direction_bonus": 0.0, "reward_excess_penalty": 0.0, "reward_smoothness_penalty": 0.0, "reward_tracking_bonus": 0.0, "reward_alive_bonus": 0.0, "target_pattern": "", "target_speed": 0.0}
{"timesteps": 32344, "episode": 19, "episode_length": 339, "total_reward": -3.7322086588610546, "terminated": false, "truncated": true, "mean_yaw_error": 1.568315128057116, "max_yaw_error": 2.514436128216901, "min_yaw_error": 0.7256839748174256, "std_yaw_error": 0.6626849941448615, "time_on_target": 0.0, "time_close": 0.0, "mean_action": 0.04942951722834314, "std_action": 0.998756687386306, "mean_action_change": 1.1116963465802767, "max_action": 3.659555196762085, "action_reversals": 160, "mean_roll": -0.1297431971799685, "mean_pitch": 0.06042852855725486, "max_tilt": 0.9565269910820937, "mean_altitude_error": 0.000610459366067664, "reward_facing": 0.0, "reward_error_reduction": 0.0, "reward_velocity_match": 0.0, "reward_direction_bonus": 0.0, "reward_excess_penalty": 0.0, "reward_smoothness_penalty": 0.0, "reward_tracking_bonus": 0.0, "reward_alive_bonus": 0.0, "target_pattern": "", "target_speed": 0.0}
{"timesteps": 32392, "episode": 20, "episode_length": 51, "total_reward": -0.7315019271227357, "terminated": true, "truncated": false, "mean_yaw_error": 1.4775522855783116, "max_yaw_error": 2.4723937715596107, "min_yaw_error": 0.6848759068341737, "std_yaw_error": 0.6775746772570849, "time_on_target": 0.0, "time_close": 0.0, "mean_action": 0.07625489318560735, "std_action": 1.1230805077706927, "mean_action_change": 1.266726504843682, "max_action": 2.8390390872955322, "action_reversals": 31, "mean_roll": 1.3308289169014818, "mean_pitch": -0.6103974503930469, "max_tilt": 1.464134779829884, "mean_altitude_error": 0.003833422679547007, "reward_facing": 0.0, "reward_error_reduction": 0.0, "reward_velocity_match": 0.0, "reward_direction_bonus": 0.0, "reward_excess_penalty": 0.0, "reward_smoothness_penalty": 0.0, "reward_tracking_bonus": 0.0, "reward_alive_bonus": 0.0, "target_pattern": "", "target_speed": 0.0}
{"timesteps": 32624, "episode": 21, "episode_length": 231, "total_reward": -1.7698508005632902, "terminated": false, "truncated": true, "mean_yaw_error": 1.4222584086428784, "max_yaw_error": 2.5182088484568808, "min_yaw_error": 0.023876320398008587, "std_yaw_error": 0.7962565043606252, "time_on_target": 0.11255411255411256, "time_close": 0.12121212121212122, "mean_action": -0.06175701637062934, "std_action": 0.9982369667353146, "mean_action_change": 1.1676567808279525, "max_action": 2.4719643592834473, "action_reversals": 114, "mean_roll": -0.229652798205482, "mean_pitch": 0.2813131888244312, "max_tilt": 0.36329299615310473, "mean_altitude_error": 0.002007075207174677, "reward_facing": 0.0, "reward_error_reduction": 0.0, "reward_velocity_match": 0.0, "reward_direction_bonus": 0.0, "reward_excess_penalty": 0.0, "reward_smoothness_penalty": 0.0, "reward_tracking_bonus": 0.0, "reward_alive_bonus": 0.0, "target_pattern": "", "target_speed": 0.0}
{"timesteps": 32696, "episode": 22, "episode_length": 74, "total_reward": -0.4820348588982597, "terminated": false, "truncated": true, "mean_yaw_error": 1.3772249141370103, "max_yaw_error": 2.5306866137764126, "min_yaw_error": 0.000163954441583646, "std_yaw_error": 0.8679515549237824, "time_on_target": 0.13513513513513514, "time_close": 0.13513513513513514, "mean_action": 0.05794697434867959, "std_action": 0.9400952201921297, "mean_action_change": 1.064953747958149, "max_action": 2.4183871746063232, "action_reversals": 37, "mean_roll": -0.11000253775933967, "mean_pitch": 0.04778606319843231, "max_tilt": 0.22095287191365887, "mean_altitude_error": 0.002824668691121504, "reward_facing": 0.0, "reward_error_reduction": 0.0, "reward_velocity_match": 0.0, "reward_direction_bonus": 0.0, "reward_excess_penalty": 0.0, "reward_smoothness_penalty": 0.0, "reward_tracking_bonus": 0.0, "reward_alive_bonus": 0.0, "target_pattern": "", "target_speed": 0.0}
{"timesteps": 32936, "episode": 23, "episode_length": 238, "total_reward": -2.1160945783922216, "terminated": true, "truncated": false, "mean_yaw_error": 1.36927868226478, "max_yaw_error": 2.2958332530463372, "min_yaw_error": 0.028108411301997163, "std_yaw_error": 0.7401195525581674, "time_on_target": 0.029411764705882353, "time_close": 0.12184873949579832, "mean_action": 0.015109914534983514, "std_action": 1.0408343761788876, "mean_action_change": 1.139469699549021, "max_action": 2.8555960655212402, "action_reversals": 109, "mean_roll": 1.3548241936651717, "mean_pitch": -0.6710232455562314, "max_tilt": 1.5118931152093065, "mean_altitude_error": 0.003948476286248534, "reward_facing": 0.0, "reward_error_reduction": 0.0, "reward_velocity_match": 0.0, "reward_direction_bonus": 0.0, "reward_excess_penalty": 0.0, "reward_smoothness_penalty": 0.0, "reward_tracking_bonus": 0.0, "reward_alive_bonus": 0.0, "target_pattern": "", "target_speed": 0.0}
{"timesteps": 33344, "episode": 24, "episode_length": 408, "total_reward": -4.643879601426306, "terminated": true, "truncated": false, "mean_yaw_error": 1.502420890060257, "max_yaw_error": 2.4407872084677065, "min_yaw_error": 0.37117526709046333, "std_yaw_error": 0.5870604501939255, "time_on_target": 0.0, "time_close": 0.0, "mean_action": -0.13739571905713163, "std_action": 0.9936184753719162, "mean_action_change": 1.0712338154746508, "max_action": 3.07660174369812, "action_reversals": 202, "mean_roll": -1.3343034476650093, "mean_pitch": -0.5052767335423055, "max_tilt": 1.4267691712081223, "mean_altitude_error": 0.005454581196436638, "reward_facing": 0.0, "reward_error_reduction": 0.0, "reward_velocity_match": 0.0, "reward_direction_bonus": 0.0, "reward_excess_penalty": 0.0, "reward_smoothness_penalty": 0.0, "reward_tracking_bonus": 0.0, "reward_alive_bonus": 0.0, "target_pattern": "", "target_speed": 0.0}
{"timesteps": 48000, "episode": 25, "episode_length": 14652, "total_reward": -152.59845570686844, "terminated": false, "truncated": true, "mean_yaw_error": 1.5866767236948138, "max_yaw_error": 3.1411169244532524, "min_yaw_error": 0.00048186707461007303, "std_yaw_error": 0.879520942776361, "time_on_target": 0.027846027846027847, "time_close": 0.0963008463008463, "mean_action": -0.01359227065087789, "std_action": 1.025021695846411, "mean_action_change": 1.165776104198343, "max_action": 4.340050220489502, "action_reversals": 7367, "mean_roll": -0.008903379566073552, "mean_pitch": 0.008041390605797318, "max_tilt": 0.24757819731308825, "mean_altitude_error": 0.0017213330931660188, "reward_facing": 0.0, "reward_error_reduction": 0.0, "reward_velocity_match": 0.0, "reward_direction_bonus": 0.0, "reward_excess_penalty": 0.0, "reward_smoothness_penalty": 0.0, "reward_tracking_bonus": 0.0, "reward_alive_bonus": 0.0, "target_pattern": "", "target_speed": 0.0}
{"timesteps": 48000, "episode": 26, "episode_length": 1, "total_reward": 0.022197376936674118, "terminated": false, "truncated": true, "mean_yaw_error": 0.011480662763678269, "max_yaw_error": 0.011480662763678269, "min_yaw_error": 0.011480662763678269, "std_yaw_error": 0.0, "time_on_target": 1.0, "time_close": 1.0, "mean_action": 0.5914120674133301, "std_action": 0.0, "mean_action_change": 0.0, "max_action": 0.5914120674133301, "action_reversals": 0, "mean_roll": -0.02568104067822654, "mean_pitch": 0.016521531839598605, "max_tilt": 0.030536484156556017, "mean_altitude_error": 0.0001845860687749168, "reward_facing": 0.0, "reward_error_reduction": 0.0, "reward_velocity_match": 0.0, "reward_direction_bonus": 0.0, "reward_excess_penalty": 0.0, "reward_smoothness_penalty": 0.0, "reward_tracking_bonus": 0.0, "reward_alive_bonus": 0.0, "target_pattern": "", "target_speed": 0.0}
{"timesteps": 48000, "episode": 27, "episode_length": 2, "total_reward": -0.020257403142750263, "terminated": false, "truncated": true, "mean_yaw_error": 1.4762445042449466, "max_yaw_error": 1.6947632174631238, "min_yaw_error": 1.2577257910267692, "std_yaw_error": 0.21851871321817729, "time_on_target": 0.0, "time_close": 0.0, "mean_action": 0.02805522084236145, "std_action": 0.3967639207839966, "mean_action_change": 0.7935278415679932, "max_action": 0.42481914162635803, "action_reversals": 1, "mean_roll": 0.0755150490265199, "mean_pitch": 0.06065911292066424, "max_tilt": 0.09686098600468405, "mean_altitude_error": 0.00042850565240815097, "reward_facing": 0.0, "reward_error_reduction": 0.0, "reward_velocity_match": 0.0, "reward_direction_bonus": 0.0, "reward_excess_penalty": 0.0, "reward_smoothness_penalty": 0.0, "reward_tracking_bonus": 0.0, "reward_alive_bonus": 0.0, "target_pattern": "", "target_speed": 0.0}
{"timesteps": 48000, "episode": 28, "episode_length": 4, "total_reward": -0.045617034658789635, "terminated": false, "truncated": true, "mean_yaw_error": 2.1682851114607864, "max_yaw_error": 2.9820496150208595, "min_yaw_error": 0.038229896040079134, "std_yaw_error": 1.231743934227505, "time_on_target": 0.25, "time_close": 0.25, "mean_action": 0.3854464069008827, "std_action": 0.40421928075249136, "mean_action_change": 0.6851311425367991, "max_action": 0.9788520336151123, "action_reversals": 2, "mean_roll": 0.07679900715070741, "mean_pitch": -0.04432711576468009, "max_tilt": 0.08867344975442061, "mean_altitude_error": 0.00027410025428314944, "reward_facing": 0.0, "reward_error_reduction": 0.0, "reward_velocity_match": 0.0, "reward_direction_bonus": 0.0, "reward_excess_penalty": 0.0, "reward_smoothness_penalty": 0.0, "reward_tracking_bonus": 0.0, "reward_alive_bonus": 0.0, "target_pattern": "", "target_speed": 0.0}
{"timesteps": 48312, "episode": 29, "episode_length": 306, "total_reward": -2.1973363258255176, "terminated": true, "truncated": false, "mean_yaw_error": 1.4613803653080197, "max_yaw_error": 2.978752920064389, "min_yaw_error": 0.03421170200774034, "std_yaw_error": 1.0716814012736444, "time_on_target": 0.1437908496732026, "time_close": 0.24836601307189543, "mean_action": 0.04891072465654682, "std_action": 0.9656414753136542, "mean_action_change": 1.0975949232451252, "max_action": 3.206218957901001, "action_reversals": 166, "mean_roll": -1.3146522218869556, "mean_pitch": -0.839277739463915, "max_tilt": 1.55971073871791, "mean_altitude_error": 0.0004513656315670632, "reward_facing": 0.0, "reward_error_reduction": 0.0, "reward_velocity_match": 0.0, "reward_direction_bonus": 0.0, "reward_excess_penalty": 0.0, "reward_smoothness_penalty": 0.0, "reward_tracking_bonus": 0.0, "reward_alive_bonus": 0.0, "target_pattern": "", "target_speed": 0.0}
{"timesteps": 48344, "episode": 30, "episode_length": 33, "total_reward": -0.2623587834495993, "terminated": false, "truncated": true, "mean_yaw_error": 1.5635298881786917, "max_yaw_error": 2.982020992813685, "min_yaw_error": 0.03506212615538868, "std_yaw_error": 1.1177401742201438, "time_on_target": 0.12121212121212122, "time_close": 0.24242424242424243, "mean_action": 0.14852829514579338, "std_action": 1.0681478545835341, "mean_action_change": 1.3250098605640233, "max_action": 2.4989712238311768, "action_reversals": 19, "mean_roll": 0.11567633478348915, "mean_pitch": -0.015420120857441141, "max_tilt": 1.1542612820014984, "mean_altitude_error": 0.0015226471625115093, "reward_facing": 0.0, "reward_error_reduction": 0.0, "reward_velocity_match": 0.0, "reward_direction_bonus": 0.0, "reward_excess_penalty": 0.0, "reward_smoothness_penalty": 0.0, "reward_tracking_bonus": 0.0, "reward_alive_bonus": 0.0, "target_pattern": "", "target_speed": 0.0}
{"timesteps": 48360, "episode": 31, "episode_length": 21, "total_reward": -0.3168311752669979, "terminated": true, "truncated": false, "mean_yaw_error": 1.6476766711376682, "max_yaw_error": 2.986363462200698, "min_yaw_error": 0.034919812584025704, "std_yaw_error": 1.1615849708945971, "time_on_target": 0.14285714285714285, "time_close": 0.2857142857142857, "mean_action": -0.004006763831490562, "std_action": 0.7861983922693118, "mean_action_change": 0.9325546309351921, "max_action": 2.223806619644165, "action_reversals": 10, "mean_roll": -1.422951420169045, "mean_pitch": 0.231889511861108, "max_tilt": 1.441722403887893, "mean_altitude_error": 0.003005197900702496, "reward_facing": 0.0, "reward_error_reduction": 0.0, "reward_velocity_match": 0.0, "reward_direction_bonus": 0.0, "reward_excess_penalty": 0.0, "reward_smoothness_penalty": 0.0, "reward_tracking_bonus": 0.0, "reward_alive_bonus": 0.0, "target_pattern": "", "target_speed": 0.0}
{"timesteps": 48392, "episode": 32, "episode_length": 30, "total_reward": -0.2391441436484456, "terminated": false, "truncated": true, "mean_yaw_error": 1.5823081785945228, "max_yaw_error": 2.9950455209747227, "min_yaw_error": 0.035035901298453055, "std_yaw_error": 1.176240967038008, "time_on_target": 0.13333333333333333, "time_close": 0.26666666666666666, "mean_action": 0.10776638587315877, "std_action": 1.0622468800476543, "mean_action_change": 1.180995222823373, "max_action": 2.5280182361602783, "action_reversals": 12, "mean_roll": 0.03270662078681113, "mean_pitch": -0.01242384445901767, "max_tilt": 0.16083931267435006, "mean_altitude_error": 0.0007397195480885725, "reward_facing": 0.0, "reward_error_reduction": 0.0, "reward_velocity_match": 0.0, "reward_direction_bonus": 0.0, "reward_excess_penalty": 0.0, "reward_smoothness_penalty": 0.0, "reward_tracking_bonus": 0.0, "reward_alive_bonus": 0.0, "target_pattern": "", "target_speed": 0.0}
{"timesteps": 48696, "episode": 33, "episode_length": 305, "total_reward": -3.4968931066714504, "terminated": false, "truncated": true, "mean_yaw_error": 1.6938662267532107, "max_yaw_error": 3.0594456165725568, "min_yaw_error": 0.2309698400655349, "std_yaw_error": 1.006164757765994, "time_on_target": 0.0, "time_close": 0.07540983606557378, "mean_action": -0.0836854469855545, "std_action": 1.0166410180606265, "mean_action_change": 1.0888209637058408, "max_action": 3.4558725357055664, "action_reversals": 142, "mean_roll": -0.10606327805621067, "mean_pitch": 0.04316829352940822, "max_tilt": 1.2999108135775648, "mean_altitude_error": 0.0017787015691623324, "reward_facing": 0.0, "reward_error_reduction": 0.0, "reward_velocity_match": 0.0, "reward_direction_bonus": 0.0, "reward_excess_penalty": 0.0, "reward_smoothness_penalty": 0.0, "reward_tracking_bonus": 0.0, "reward_alive_bonus": 0.0, "target_pattern": "", "target_speed": 0.0}
{"timesteps": 48720, "episode": 34, "episode_length": 19, "total_reward": -0.28925558769492454, "terminated": true, "truncated": false, "mean_yaw_error": 1.3937117034526152, "max_yaw_error": 2.6805481025307296, "min_yaw_error": 0.4280167554954888, "std_yaw_error": 0.8281768423977653, "time_on_target": 0.0, "time_close": 0.0, "mean_action": 0.16409069652620115, "std_action": 0.750873984146942, "mean_action_change": 0.8193897795346048, "max_action": 1.4492205381393433, "action_reversals": 10, "mean_roll": -1.4285280429270837, "mean_pitch": -0.1094992973782262, "max_tilt": 1.432718557692127, "mean_altitude_error": 0.007513848621479968, "reward_facing": 0.0, "reward_error_reduction": 0.0, "reward_velocity_match": 0.0, "reward_direction_bonus": 0.0, "reward_excess_penalty": 0.0, "reward_smoothness_penalty": 0.0, "reward_tracking_bonus": 0.0, "reward_alive_bonus": 0.0, "target_pattern": "", "target_speed": 0.0}
{"timesteps": 49344, "episode": 35, "episode_length": 627, "total_reward": -4.633029154284031, "terminated": false, "truncated": true, "mean_yaw_error": 1.2439611062949925, "max_yaw_error": 2.6728731731397577, "min_yaw_error": 0.44041868248680016, "std_yaw_error": 0.6820769342572374, "time_on_target": 0.0, "time_close": 0.0, "mean_action": -0.012782581403043471, "std_action": 1.0173217983089422, "mean_action_change": 1.162894515689617, "max_action": 3.2225232124328613, "action_reversals": 314, "mean_roll": -0.04369760659174471, "mean_pitch": -0.025665936650421144, "max_tilt": 0.20320922528591873, "mean_altitude_error": 0.0034905708271814146, "reward_facing": 0.0, "reward_error_reduction": 0.0, "reward_velocity_match": 0.0, "reward_direction_bonus": 0.0, "reward_excess_penalty": 0.0, "reward_smoothness_penalty": 0.0, "reward_tracking_bonus": 0.0, "reward_alive_bonus": 0.0, "target_pattern": "", "target_speed": 0.0}
{"timesteps": 64000, "episode": 36, "episode_length": 14652, "total_reward": -170.99789942517026, "terminated": false, "truncated": true, "mean_yaw_error": 1.6398550879963323, "max_yaw_error": 3.1415517460497884, "min_yaw_error": 0.00019279420713760602, "std_yaw_error": 0.8331403716813545, "time_on_target": 0.02033852033852034, "time_close": 0.06511056511056511, "mean_action": -0.017403608342657632, "std_action": 1.0204368988226937, "mean_action_change": 1.1471933882156735, "max_action": 4.109469890594482, "action_reversals": 7287, "mean_roll": -0.15423974790245298, "mean_pitch": -0.15374285859416734, "max_tilt": 0.7314085019668153, "mean_altitude_error": 0.0033448449487190907, "reward_facing": 0.0, "reward_error_reduction": 0.0, "reward_velocity_match": 0.0, "reward_direction_bonus": 0.0, "reward_excess_penalty": 0.0, "reward_smoothness_penalty": 0.0, "reward_tracking_bonus": 0.0, "reward_alive_bonus": 0.0, "target_pattern": "", "target_speed": 0.0}
{"timesteps": 64000, "episode": 37, "episode_length": 3, "total_reward": -0.008110000053420663, "terminated": false, "truncated": true, "mean_yaw_error": 0.9679977389781963, "max_yaw_error": 1.2693419644778117, "min_yaw_error": 0.42305430141624645, "std_yaw_error": 0.3860536527915897, "time_on_target": 0.0, "time_close": 0.0, "mean_action": 0.7453058958053589, "std_action": 0.19791649799736383, "mean_action_change": 0.2268558144569397, "max_action": 0.9228570461273193, "action_reversals": 0, "mean_roll": -0.014570136900384615, "mean_pitch": 0.11355894851723457, "max_tilt": 0.49003072078269416, "mean_altitude_error": 0.0012799249475698622, "reward_facing": 0.0, "reward_error_reduction": 0.0, "reward_velocity_match": 0.0, "reward_direction_bonus": 0.0, "reward_excess_penalty": 0.0, "reward_smoothness_penalty": 0.0, "reward_tracking_bonus": 0.0, "reward_alive_bonus": 0.0, "target_pattern": "", "target_speed": 0.0}
{"timesteps": 64344, "episode": 38, "episode_length": 343, "total_reward": -2.4262894772618893, "terminated": false, "truncated": true, "mean_yaw_error": 1.3494462891229109, "max_yaw_error": 3.14027042411961, "min_yaw_error": 0.3502040220010238, "std_yaw_error": 1.033799570204378, "time_on_target": 0.0, "time_close": 0.0, "mean_action": -0.08870353896181715, "std_action": 0.9864994008361195, "mean_action_change": 1.0982651835122303, "max_action": 3.1286633014678955, "action_reversals": 160, "mean_roll": -0.12165399398731346, "mean_pitch": -0.1295815956938302, "max_tilt": 0.6747386729653676, "mean_altitude_error": 0.0021084413524532285, "reward_facing": 0.0, "reward_error_reduction": 0.0, "reward_velocity_match": 0.0, "reward_direction_bonus": 0.0, "reward_excess_penalty": 0.0, "reward_smoothness_penalty": 0.0, "reward_tracking_bonus": 0.0, "reward_alive_bonus": 0.0, "target_pattern": "", "target_speed": 0.0}
{"timesteps": 64360, "episode": 39, "episode_length": 21, "total_reward": -0.1861401204369031, "terminated": false, "truncated": true, "mean_yaw_error": 1.475042575949635, "max_yaw_error": 3.125770349912737, "min_yaw_error": 0.41698604787506016, "std_yaw_error": 1.0687149510250538, "time_on_target": 0.0, "time_close": 0.0, "mean_action": -0.06082471318188168, "std_action": 1.1955083960847452, "mean_action_change": 1.7055920761078596, "max_action": 2.6948962211608887, "action_reversals": 12, "mean_roll": 0.28360661699931117, "mean_pitch": -0.16359942727495944, "max_tilt": 0.42556545234038, "mean_altitude_error": 0.0024429677535345177, "reward_facing": 0.0, "reward_error_reduction": 0.0, "reward_velocity_match": 0.0, "reward_direction_bonus": 0.0, "reward_excess_penalty": 0.0, "reward_smoothness_penalty": 0.0, "reward_tracking_bonus": 0.0, "reward_alive_bonus": 0.0, "target_pattern": "", "target_speed": 0.0}
{"timesteps": 64392, "episode": 40, "episode_length": 30, "total_reward": -0.24369854293763638, "terminated": false, "truncated": true, "mean_yaw_error": 1.462176418141162, "max_yaw_error": 3.1382032568073686, "min_yaw_error": 0.40387208177486217, "std_yaw_error": 1.0402464988648008, "time_on_target": 0.0, "time_close": 0.0, "mean_action": 0.011280117432276408, "std_action": 0.9068613990539831, "mean_action_change": 1.0294902365783165, "max_action": 2.0590577125549316, "action_reversals": 17, "mean_roll": 0.31754943526187346, "mean_pitch": -0.04044738912613793, "max_tilt": 0.501699648450439, "mean_altitude_error": 0.0029947560711807747, "reward_facing": 0.0, "reward_error_reduction": 0.0, "reward_velocity_match": 0.0, "reward_direction_bonus": 0.0, "reward_excess_penalty": 0.0, "reward_smoothness_penalty": 0.0, "reward_tracking_bonus": 0.0, "reward_alive_bonus": 0.0, "target_pattern": "", "target_speed": 0.0}
{"timesteps": 64696, "episode": 41, "episode_length": 305, "total_reward": -2.8146403743480732, "terminated": false, "truncated": true, "mean_yaw_error": 1.5154990988214854, "max_yaw_error": 3.1415723758835483, "min_yaw_error": 0.27810277434561703, "std_yaw_error": 1.0177731057870263, "time_on_target": 0.0, "time_close": 0.07213114754098361, "mean_action": 0.04402034080770539, "std_action": 1.0254374916199636, "mean_action_change": 1.1459474273617256, "max_action": 2.8763856887817383, "action_reversals": 152, "mean_roll": -0.037282806284051576, "mean_pitch": -0.038001965971894314, "max_tilt": 0.5301718538897161, "mean_altitude_error": 0.002442477890853765, "reward_facing": 0.0, "reward_error_reduction": 0.0, "reward_velocity_match": 0.0, "reward_direction_bonus": 0.0, "reward_excess_penalty": 0.0, "reward_smoothness_penalty": 0.0, "reward_tracking_bonus": 0.0, "reward_alive_bonus": 0.0, "target_pattern": "", "target_speed": 0.0}
{"timesteps": 64720, "episode": 42, "episode_length": 19, "total_reward": -0.17821223812643439, "terminated": false, "truncated": true, "mean_yaw_error": 1.4770768258287859, "max_yaw_error": 3.0560222005525537, "min_yaw_error": 0.26831268404990766, "std_yaw_error": 0.9204223871323721, "time_on_target": 0.0, "time_close": 0.15789473684210525, "mean_action": -0.012717798940445247, "std_action": 0.7809887965834187, "mean_action_change": 0.7867122516036034, "max_action": 1.934515118598938, "action_reversals": 7, "mean_roll": -0.5372076154292547, "mean_pitch": -0.2565248996442528, "max_tilt": 0.5953125617796755, "mean_altitude_error": 0.0026976966355069607, "reward_facing": 0.0, "reward_error_reduction": 0.0, "reward_velocity_match": 0.0, "reward_direction_bonus": 0.0, "reward_excess_penalty": 0.0, "reward_smoothness_penalty": 0.0, "reward_tracking_bonus": 0.0, "reward_alive_bonus": 0.0, "target_pattern": "", "target_speed": 0.0}
{"timesteps": 65344, "episode": 43, "episode_length": 627, "total_reward": -7.458873668452725, "terminated": false, "truncated": true, "mean_yaw_error": 1.6974343592037962, "max_yaw_error": 3.05005820607417, "min_yaw_error": 0.021272640039315588, "std_yaw_error": 0.8289067786651872, "time_on_target": 0.04146730462519936, "time_close": 0.12440191387559808, "mean_action": -0.010607808667934683, "std_action": 1.0047304934437595, "mean_action_change": 1.0886271117261042, "max_action": 2.7334885597229004, "action_reversals": 292, "mean_roll": 0.06122058050053947, "mean_pitch": -0.007667911739309283, "max_tilt": 0.21556929257555138, "mean_altitude_error": 0.0038653439826439686, "reward_facing": 0.0, "reward_error_reduction": 0.0, "reward_velocity_match": 0.0, "reward_direction_bonus": 0.0, "reward_excess_penalty": 0.0, "reward_smoothness_penalty": 0.0, "reward_tracking_bonus": 0.0, "reward_alive_bonus": 0.0, "target_pattern": "", "target_speed": 0.0}
{"timesteps": 80000, "episode": 44, "episode_length": 14652, "total_reward": -112.9736949818452, "terminated": false, "truncated": true, "mean_yaw_error": 1.371864445573668, "max_yaw_error": 3.141480652685623, "min_yaw_error": 0.00034066668397069475, "std_yaw_error": 0.8417190789847155, "time_on_target": 0.040335790335790336, "time_close": 0.1304941304941305, "mean_action": 0.021345535743055616, "std_action": 1.018510681557748, "mean_action_change": 1.1495254263827863, "max_action": 4.0625104904174805, "action_reversals": 7287, "mean_roll": 0.04139544561846764, "mean_pitch": -0.007828870351676426, "max_tilt": 0.5285374496902082, "mean_altitude_error": 0.00190937692597458, "reward_facing": 0.0, "reward_error_reduction": 0.0, "reward_velocity_match": 0.0, "reward_direction_bonus": 0.0, "reward_excess_penalty": 0.0, "reward_smoothness_penalty": 0.0, "reward_tracking_bonus": 0.0, "reward_alive_bonus": 0.0, "target_pattern": "", "target_speed": 0.0}
{"timesteps": 80000, "episode": 45, "episode_length": 3, "total_reward": -0.024829313391819596, "terminated": false, "truncated": true, "mean_yaw_error": 1.339052202695898, "max_yaw_error": 2.280118932894438, "min_yaw_error": 0.8166906011686356, "std_yaw_error": 0.6667788784428038, "time_on_target": 0.0, "time_close": 0.0, "mean_action": 1.3621407747268677, "std_action": 0.27626719029221375, "mean_action_change": 0.3180902600288391, "max_action": 1.613637924194336, "action_reversals": 0, "mean_roll": 0.006960584868937885, "mean_pitch": -0.011628909797290756, "max_tilt": 0.34311925380431263, "mean_altitude_error": 0.00023514790514419145, "reward_facing": 0.0, "reward_error_reduction": 0.0, "reward_velocity_match": 0.0, "reward_direction_bonus": 0.0, "reward_excess_penalty": 0.0, "reward_smoothness_penalty": 0.0, "reward_tracking_bonus": 0.0, "reward_alive_bonus": 0.0, "target_pattern": "", "target_speed": 0.0}
{"timesteps": 80344, "episode": 46, "episode_length": 343, "total_reward": -3.472446074549225, "terminated": false, "truncated": true, "mean_yaw_error": 1.6043042691709666, "max_yaw_error": 3.141003955816569, "min_yaw_error": 0.33869412455999837, "std_yaw_error": 1.0243148490326957, "time_on_target": 0.0, "time_close": 0.023323615160349854, "mean_action": 0.035060943215651, "std_action": 0.9962424758384354, "mean_action_change": 1.124221825024538, "max_action": 3.116899251937866, "action_reversals": 169, "mean_roll": 0.25182822739380234, "mean_pitch": 0.15459333109660803, "max_tilt": 1.005264269061335, "mean_altitude_error": 0.001406090503481331, "reward_facing": 0.0, "reward_error_reduction": 0.0, "reward_velocity_match": 0.0, "reward_direction_bonus": 0.0, "reward_excess_penalty": 0.0, "reward_smoothness_penalty": 0.0, "reward_tracking_bonus": 0.0, "reward_alive_bonus": 0.0, "target_pattern": "", "target_speed": 0.0}
{"timesteps": 80360, "episode": 47, "episode_length": 21, "total_reward": -0.28033356729429215, "terminated": false, "truncated": true, "mean_yaw_error": 1.7716423006885795, "max_yaw_error": 3.091395724960457, "min_yaw_error": 0.6038263273062128, "std_yaw_error": 0.9131847924413132, "time_on_target": 0.0, "time_close": 0.0, "mean_action": 0.3062968367622012, "std_action": 0.9005791701175583, "mean_action_change": 1.0909650385379792, "max_action": 1.8020328283309937, "action_reversals": 13, "mean_roll": -0.1859644701019045, "mean_pitch": 0.024258664842214138, "max_tilt": 1.1144630314748636, "mean_altitude_error": 0.0030993290848944565, "reward_facing": 0.0, "reward_error_reduction": 0.0, "reward_velocity_match": 0.0, "reward_direction_bonus": 0.0, "reward_excess_penalty": 0.0, "reward_smoothness_penalty": 0.0, "reward_tracking_bonus": 0.0, "reward_alive_bonus": 0.0, "target_pattern": "", "target_speed": 0.0}
{"timesteps": 80392, "episode": 48, "episode_length": 30, "total_reward": -0.5037179521750659, "terminated": false, "truncated": true, "mean_yaw_error": 1.973023804114854, "max_yaw_error": 3.097658554971392, "min_yaw_error": 0.7803082644942322, "std_yaw_error": 0.7529598916560013, "time_on_target": 0.0, "time_close": 0.0, "mean_action": -0.02061344087123871, "std_action": 1.016687489391875, "mean_action_change": 1.21343887931314, "max_action": 2.0982866287231445, "action_reversals": 15, "mean_roll": 0.07630141380392869, "mean_pitch": 0.0038935668163818365, "max_tilt": 1.32125171209806, "mean_altitude_error": 0.004712942571426185, "reward_facing": 0.0, "reward_error_reduction": 0.0, "reward_velocity_match": 0.0, "reward_direction_bonus": 0.0, "reward_excess_penalty": 0.0, "reward_smoothness_penalty": 0.0, "reward_tracking_bonus": 0.0, "reward_alive_bonus": 0.0, "target_pattern": "", "target_speed": 0.0}
{"timesteps": 80408, "episode": 49, "episode_length": 11, "total_reward": -0.3322617239318788, "terminated": true, "truncated": false, "mean_yaw_error": 2.053511392120261, "max_yaw_error": 3.0960475733919552, "min_yaw_error": 0.9464998756756856, "std_yaw_error": 0.6125740544197465, "time_on_target": 0.0, "time_close": 0.0, "mean_action": -0.30416143516247923, "std_action": 1.1202934585882711, "mean_action_change": 1.4723676197230815, "max_action": 1.9125707149505615, "action_reversals": 4, "mean_roll": 1.37498166344456, "mean_pitch": -0.3542716626099432, "max_tilt": 1.4198883708718733, "mean_altitude_error": 0.008306726252213686, "reward_facing": 0.0, "reward_error_reduction": 0.0, "reward_velocity_match": 0.0, "reward_direction_bonus": 0.0, "reward_excess_penalty": 0.0, "reward_smoothness_penalty": 0.0, "reward_tracking_bonus": 0.0, "reward_alive_bonus": 0.0, "target_pattern": "", "target_speed": 0.0}
{"timesteps": 80416, "episode": 50, "episode_length": 11, "total_reward": -0.29073919483926147, "terminated": true, "truncated": false, "mean_yaw_error": 1.711304450629396, "max_yaw_error": 3.0931459280069107, "min_yaw_error": 0.5673093442711112, "std_yaw_error": 0.758123601656328, "time_on_target": 0.0, "time_close": 0.0, "mean_action": -0.3865856264125217, "std_action": 0.7714143396593787, "mean_action_change": 0.9030477628111839, "max_action": 1.8076472282409668, "action_reversals": 6, "mean_roll": 1.1927850529823658, "mean_pitch": 0.8070383044088555, "max_tilt": 1.440155202539388, "mean_altitude_error": 0.005013242869674376, "reward_facing": 0.0, "reward_error_reduction": 0.0, "reward_velocity_match": 0.0, "reward_direction_bonus": 0.0, "reward_excess_penalty": 0.0, "reward_smoothness_penalty": 0.0, "reward_tracking_bonus": 0.0, "reward_alive_bonus": 0.0, "target_pattern": "", "target_speed": 0.0}
{"timesteps": 80696, "episode": 51, "episode_length": 283, "total_reward": -4.077061913842044, "terminated": false, "truncated": true, "mean_yaw_error": 1.9600134563539757, "max_yaw_error": 3.0889487304032546, "min_yaw_error": 0.44215723809343077, "std_yaw_error": 0.8580255918132061, "time_on_target": 0.0, "time_close": 0.0, "mean_action": 0.027207250045382093, "std_action": 1.0290397442266823, "mean_action_change": 1.2058277896321412, "max_action": 4.043222427368164, "action_reversals": 149, "mean_roll": -0.019965473818995282, "mean_pitch": -0.02584359807131375, "max_tilt": 0.7134102456712502, "mean_altitude_error": 0.0005530393478669755, "reward_facing": 0.0, "reward_error_reduction": 0.0, "reward_velocity_match": 0.0, "reward_direction_bonus": 0.0, "reward_excess_penalty": 0.0, "reward_smoothness_penalty": 0.0, "reward_tracking_bonus": 0.0, "reward_alive_bonus": 0.0, "target_pattern": "", "target_speed": 0.0}
{"timesteps": 80720, "episode": 52, "episode_length": 19, "total_reward": -0.27017833024729043, "terminated": false, "truncated": true, "mean_yaw_error": 1.8637266419456724, "max_yaw_error": 2.9992989051419476, "min_yaw_error": 0.41300825051963486, "std_yaw_error": 0.9305122828446349, "time_on_target": 0.0, "time_close": 0.0, "mean_action": 0.36625488906314496, "std_action": 1.0894156101696204, "mean_action_change": 1.4611779318915472, "max_action": 2.3818278312683105, "action_reversals": 9, "mean_roll": -0.07401156723209078, "mean_pitch": 0.001993091798729721, "max_tilt": 0.8827881409692933, "mean_altitude_error": 0.002225873079339501, "reward_facing": 0.0, "reward_error_reduction": 0.0, "reward_velocity_match": 0.0, "reward_direction_bonus": 0.0, "reward_excess_penalty": 0.0, "reward_smoothness_penalty": 0.0, "reward_tracking_bonus": 0.0, "reward_alive_bonus": 0.0, "target_pattern": "", "target_speed": 0.0}
{"timesteps": 81008, "episode": 53, "episode_length": 293, "total_reward": -4.747276354886708, "terminated": true, "truncated": false, "mean_yaw_error": 2.084672762509198, "max_yaw_error": 3.128429024389511, "min_yaw_error": 0.11080939131408259, "std_yaw_error": 0.9637960954948073, "time_on_target": 0.0, "time_close": 0.09215017064846416, "mean_action": 0.05024608611145117, "std_action": 0.9743675207476886, "mean_action_change": 1.1116532676228106, "max_action": 2.7608025074005127, "action_reversals": 147, "mean_roll": 1.2051066206615508, "mean_pitch": 0.8408466527529795, "max_tilt": 1.4694574034684342, "mean_altitude_error": 0.02185854786275914, "reward_facing": 0.0, "reward_error_reduction": 0.0, "reward_velocity_match": 0.0, "reward_direction_bonus": 0.0, "reward_excess_penalty": 0.0, "reward_smoothness_penalty": 0.0, "reward_tracking_bonus": 0.0, "reward_alive_bonus": 0.0, "target_pattern": "", "target_speed": 0.0}
{"timesteps": 81336, "episode": 54, "episode_length": 328, "total_reward": -4.086216788971797, "terminated": true, "truncated": false, "mean_yaw_error": 1.8503930260394676, "max_yaw_error": 3.1058979673969507, "min_yaw_error": 0.00599385332602041, "std_yaw_error": 1.0066934685438405, "time_on_target": 0.07926829268292683, "time_close": 0.125, "mean_action": -0.16018442041808512, "std_action": 1.0580104672215338, "mean_action_change": 1.1755030190498093, "max_action": 3.4078946113586426, "action_reversals": 167, "mean_roll": -1.0263330966897248, "mean_pitch": -0.9860849016790442, "max_tilt": 1.4232789813244944, "mean_altitude_error": 0.10458593262132324, "reward_facing": 0.0, "reward_error_reduction": 0.0, "reward_velocity_match": 0.0, "reward_direction_bonus": 0.0, "reward_excess_penalty": 0.0, "reward_smoothness_penalty": 0.0, "reward_tracking_bonus": 0.0, "reward_alive_bonus": 0.0, "target_pattern": "", "target_speed": 0.0}
{"timesteps": 81344, "episode": 55, "episode_length": 6, "total_reward": -0.08946681581437588, "terminated": false, "truncated": true, "mean_yaw_error": 2.1198650252718463, "max_yaw_error": 3.024308242147098, "min_yaw_error": 0.15684060654333343, "std_yaw_error": 1.0487148525082086, "time_on_target": 0.0, "time_close": 0.16666666666666666, "mean_action": -0.10553032159805298, "std_action": 1.1182929447887289, "mean_action_change": 1.052367103099823, "max_action": 1.7353559732437134, "action_reversals": 1, "mean_roll": -0.1378163536304612, "mean_pitch": 0.10312287948300482, "max_tilt": 0.2530456005594014, "mean_altitude_error": 0.14767645083565908, "reward_facing": 0.0, "reward_error_reduction": 0.0, "reward_velocity_match": 0.0, "reward_direction_bonus": 0.0, "reward_excess_penalty": 0.0, "reward_smoothness_penalty": 0.0, "reward_tracking_bonus": 0.0, "reward_alive_bonus": 0.0, "target_pattern": "", "target_speed": 0.0}
{"timesteps": 81816, "episode": 56, "episode_length": 474, "total_reward": -5.4223913719742995, "terminated": true, "truncated": false, "mean_yaw_error": 1.656242178422796, "max_yaw_error": 3.1384771060913113, "min_yaw_error": 0.16001347496127893, "std_yaw_error": 0.9977436658969829, "time_on_target": 0.0, "time_close": 0.12447257383966245, "mean_action": -0.05176796927215052, "std_action": 1.0032161022393193, "mean_action_change": 1.1248866663674724, "max_action": 2.96889066696167, "action_reversals": 250, "mean_roll": 1.2796961861898841, "mean_pitch": 0.5960197841132432, "max_tilt": 1.4116876113373424, "mean_altitude_error": 0.08219398779065136, "reward_facing": 0.0, "reward_error_reduction": 0.0, "reward_velocity_match": 0.0, "reward_direction_bonus": 0.0, "reward_excess_penalty": 0.0, "reward_smoothness_penalty": 0.0, "reward_tracking_bonus": 0.0, "reward_alive_bonus": 0.0, "target_pattern": "", "target_speed": 0.0}
{"timesteps": 82216, "episode": 57, "episode_length": 401, "total_reward": -4.597386632489361, "terminated": true, "truncated": false, "mean_yaw_error": 1.5996408851672281, "max_yaw_error": 2.932455097907491, "min_yaw_error": 0.34753081697674587, "std_yaw_error": 0.9171908844494464, "time_on_target": 0.0, "time_close": 0.0024937655860349127, "mean_action": -0.06471798086580716, "std_action": 1.071130515180775, "mean_action_change": 1.2149056748207658, "max_action": 3.859400749206543, "action_reversals": 193, "mean_roll": 1.2733117115397332, "mean_pitch": 0.706864781241606, "max_tilt": 1.4563586555872796, "mean_altitude_error": 0.02804500591369021, "reward_facing": 0.0, "reward_error_reduction": 0.0, "reward_velocity_match": 0.0, "reward_direction_bonus": 0.0, "reward_excess_penalty": 0.0, "reward_smoothness_penalty": 0.0, "reward_tracking_bonus": 0.0, "reward_alive_bonus": 0.0, "target_pattern": "", "target_speed": 0.0}
{"timesteps": 96344, "episode": 58, "episode_length": 14123, "total_reward": -70.12939199437227, "terminated": false, "truncated": true, "mean_yaw_error": 1.1993809387979864, "max_yaw_error": 3.141376310309464, "min_yaw_error": 0.00027430567805218766, "std_yaw_error": 0.9109960847830982, "time_on_target": 0.07427600368193726, "time_close": 0.2277136585711251, "mean_action": 0.0014771973194893002, "std_action": 1.0134131518653509, "mean_action_change": 1.1452689504435802, "max_action": 4.0850396156311035, "action_reversals": 7099, "mean_roll": -0.06274628399994367, "mean_pitch": -0.2176186526172498, "max_tilt": 0.5138941075984543, "mean_altitude_error": 0.001827658939200291, "reward_facing": 0.0, "reward_error_reduction": 0.0, "reward_velocity_match": 0.0, "reward_direction_bonus": 0.0, "reward_excess_penalty": 0.0, "reward_smoothness_penalty": 0.0, "reward_tracking_bonus": 0.0, "reward_alive_bonus": 0.0, "target_pattern": "", "target_speed": 0.0}
{"timesteps": 96392, "episode": 59, "episode_length": 51, "total_reward": -0.8257956008019391, "terminated": false, "truncated": true, "mean_yaw_error": 2.18879454703499, "max_yaw_error": 3.137323122535405, "min_yaw_error": 0.6664409800470091, "std_yaw_error": 0.8642595095739675, "time_on_target": 0.0, "time_close": 0.0, "mean_action": -0.24247240322623767, "std_action": 1.0105456885478745, "mean_action_change": 1.044465237185359, "max_action": 2.084138870239258, "action_reversals": 19, "mean_roll": 0.08369246243591007, "mean_pitch": -0.09769910689157943, "max_tilt": 0.2616498019141953, "mean_altitude_error": 0.0004997810371596172, "reward_facing": 0.0, "reward_error_reduction": 0.0, "reward_velocity_match": 0.0, "reward_direction_bonus": 0.0, "reward_excess_penalty": 0.0, "reward_smoothness_penalty": 0.0, "reward_tracking_bonus": 0.0, "reward_alive_bonus": 0.0, "target_pattern": "", "target_speed": 0.0}
{"timesteps": 96408, "episode": 60, "episode_length": 11, "total_reward": -0.15102392004337162, "terminated": false, "truncated": true, "mean_yaw_error": 1.9727814336044505, "max_yaw_error": 3.139480359669126, "min_yaw_error": 0.1862971136004001, "std_yaw_error": 1.0078580814880445, "time_on_target": 0.0, "time_close": 0.09090909090909091, "mean_action": -0.6402567625045776, "std_action": 0.855511568200042, "mean_action_change": 1.104628038406372, "max_action": 1.543631672859192, "action_reversals": 4, "mean_roll": 0.00010179902708835827, "mean_pitch": -0.011217983506757987, "max_tilt": 0.2522762876535923, "mean_altitude_error": 0.0003741938644192911, "reward_facing": 0.0, "reward_error_reduction": 0.0, "reward_velocity_match": 0.0, "reward_direction_bonus": 0.0, "reward_excess_penalty": 0.0, "reward_smoothness_penalty": 0.0, "reward_tracking_bonus": 0.0, "reward_alive_bonus": 0.0, "target_pattern": "", "target_speed": 0.0}
{"timesteps": 96416, "episode": 61, "episode_length": 11, "total_reward": -0.1883548407931812, "terminated": false, "truncated": true, "mean_yaw_error": 2.2277155225455285, "max_yaw_error": 3.1415419503767397, "min_yaw_error": 0.1896082812520503, "std_yaw_error": 0.9660430666306897, "time_on_target": 0.0, "time_close": 0.09090909090909091, "mean_action": 0.12971696122126145, "std_action": 1.0010410298996488, "mean_action_change": 1.1202702283859254, "max_action": 1.8403185606002808, "action_reversals": 4, "mean_roll": -0.06848209021729552, "mean_pitch": 0.046254793472862044, "max_tilt": 0.2490610237357783, "mean_altitude_error": 0.0005124319305888182, "reward_facing": 0.0, "reward_error_reduction": 0.0, "reward_velocity_match": 0.0, "reward_direction_bonus": 0.0, "reward_excess_penalty": 0.0, "reward_smoothness_penalty": 0.0, "reward_tracking_bonus": 0.0, "reward_alive_bonus": 0.0, "target_pattern": "", "target_speed": 0.0}
{"timesteps": 96720, "episode": 62, "episode_length": 301, "total_reward": -4.615235603763722, "terminated": true, "truncated": false, "mean_yaw_error": 1.9981179025792983, "max_yaw_error": 3.1372685161092977, "min_yaw_error": 0.19291368890370092, "std_yaw_error": 0.9741271707307597, "time_on_target": 0.0, "time_close": 0.12624584717607973, "mean_action": 0.04282353940942755, "std_action": 1.0203753778015263, "mean_action_change": 1.2231270254651705, "max_action": 3.137392044067383, "action_reversals": 155, "mean_roll": -1.2677509556784867, "mean_pitch": 0.8775738313311243, "max_tilt": 1.5418587208499048, "mean_altitude_error": 0.0007145701429344655, "reward_facing": 0.0, "reward_error_reduction": 0.0, "reward_velocity_match": 0.0, "reward_direction_bonus": 0.0, "reward_excess_penalty": 0.0, "reward_smoothness_penalty": 0.0, "reward_tracking_bonus": 0.0, "reward_alive_bonus": 0.0, "target_pattern": "", "target_speed": 0.0}
{"timesteps": 96720, "episode": 63, "episode_length": 1, "total_reward": -0.018261989578604698, "terminated": false, "truncated": true, "mean_yaw_error": 2.1397733666761205, "max_yaw_error": 2.1397733666761205, "min_yaw_error": 2.1397733666761205, "std_yaw_error": 0.0, "time_on_target": 0.0, "time_close": 0.0, "mean_action": 0.3324854373931885, "std_action": 0.0, "mean_action_change": 0.0, "max_action": 0.3324854373931885, "action_reversals": 0, "mean_roll": -0.15135341105872793, "mean_pitch": -0.08095626816497696, "max_tilt": 0.17164431943502217, "mean_altitude_error": 0.0009182001615629654, "reward_facing": 0.0, "reward_error_reduction": 0.0, "reward_velocity_match": 0.0, "reward_direction_bonus": 0.0, "reward_excess_penalty": 0.0, "reward_smoothness_penalty": 0.0, "reward_tracking_bonus": 0.0, "reward_alive_bonus": 0.0, "target_pattern": "", "target_speed": 0.0}
{"timesteps": 96728, "episode": 64, "episode_length": 10, "total_reward": -0.27994156125350855, "terminated": true, "truncated": false, "mean_yaw_error": 2.054383756331249, "max_yaw_error": 3.0540106833213563, "min_yaw_error": 0.35695217677998214, "std_yaw_error": 0.8798499635300333, "time_on_target": 0.0, "time_close": 0.0, "mean_action": -0.5341116273775697, "std_action": 0.8195603821626242, "mean_action_change": 1.0222248911029763, "max_action": 1.6818885803222656, "action_reversals": 3, "mean_roll": 1.1730528588267024, "mean_pitch": 0.8504975087579162, "max_tilt": 1.4489303026732931, "mean_altitude_error": 0.002349796010431127, "reward_facing": 0.0, "reward_error_reduction": 0.0, "reward_velocity_match": 0.0, "reward_direction_bonus": 0.0, "reward_excess_penalty": 0.0, "reward_smoothness_penalty": 0.0, "reward_tracking_bonus": 0.0, "reward_alive_bonus": 0.0, "target_pattern": "", "target_speed": 0.0}
